[
  {
    "id": 105524941,
    "link": "https://www.travelmidwest.com/lmiga/showCamera.jsp?id=IL-IDOTD4-camera_171&direction=W",
    "name": "US-24 at Terminal Road",
    "direction": "W",
    "latitude": 40.56113,
    "longitude": -89.75139,
    "imageUrl": "https://www.travelmidwest.com/lmiga/snapshot?id=IL-IDOTD4-camera_171&direction=W",
    "route": "US-24"
  },
  {
    "id": 105524942,
    "link": "https://www.travelmidwest.com/lmiga/showCamera.jsp?id=IL-IDOTD4-camera_171&direction=E",
    "name": "US-24 at Terminal Road",
    "direction": "E",
    "latitude": 40.56113,
    "longitude": -89.75139,
    "imageUrl": "https://www.travelmidwest.com/lmiga/snapshot?id=IL-IDOTD4-camera_171&direction=E",
    "route": "US-24"
  },
  {
    "id": 105524943,
    "link": "https://www.travelmidwest.com/lmiga/showCamera.jsp?id=IL-IDOTD4-camera_171&direction=S",
    "name": "US-24 at Terminal Road",
    "direction": "S",
    "latitude": 40.56113,
    "longitude": -89.75139,
    "imageUrl": "https://www.travelmidwest.com/lmiga/snapshot?id=IL-IDOTD4-camera_171&direction=S",
    "route": "US-24"
  },
  {
    "id": 105524944,
    "link": "https://www.travelmidwest.com/lmiga/showCamera.jsp?id=IL-IDOTD4-camera_172&direction=W",
    "name": "Sterling Ave. at Scenic Dr.",
    "direction": "W",
    "latitude": 40.74379,
    "longitude": -89.6317,
    "imageUrl": "https://www.travelmidwest.com/lmiga/snapshot?id=IL-IDOTD4-camera_172&direction=W",
    "route": "Sterling Ave"
  },
  {
    "id": 105524945,
    "link": "https://www.travelmidwest.com/lmiga/showCamera.jsp?id=IL-IDOTD4-camera_172&direction=E",
    "name": "Sterling Ave. at Scenic Dr.",
    "direction": "E",
    "latitude": 40.74379,
    "longitude": -89.6317,
    "imageUrl": "https://www.travelmidwest.com/lmiga/snapshot?id=IL-IDOTD4-camera_172&direction=E",
    "route": "Sterling Ave"
  },
  {
    "id": 105524946,
    "link": "https://www.travelmidwest.com/lmiga/showCamera.jsp?id=IL-IDOTD4-camera_172&direction=S",
    "name": "Sterling Ave. at Scenic Dr.",
    "direction": "S",
    "latitude": 40.74379,
    "longitude": -89.6317,
    "imageUrl": "https://www.travelmidwest.com/lmiga/snapshot?id=IL-IDOTD4-camera_172&direction=S",
    "route": "Sterling Ave"
  },
  {
    "id": 105524947,
    "link": "https://www.travelmidwest.com/lmiga/showCamera.jsp?id=IL-IDOTD4-camera_172&direction=N",
    "name": "Sterling Ave. at Scenic Dr.",
    "direction": "N",
    "latitude": 40.74379,
    "longitude": -89.6317,
    "imageUrl": "https://www.travelmidwest.com/lmiga/snapshot?id=IL-IDOTD4-camera_172&direction=N",
    "route": "Sterling Ave"
  },
  {
    "id": 105524948,
    "link": "https://www.travelmidwest.com/lmiga/showCamera.jsp?id=IL-LAKECOUNTY-cam172_30_51_161&direction=W",
    "name": "Cedar Lake at Rollins",
    "direction": "W",
    "latitude": 42.37889,
    "longitude": -88.0897,
    "imageUrl": "https://www.lakecountypassage.com/snapshots/Cedar_Lake_@_Rollins_cctv_West_Leg.jpg",
    "route": "Cedar Lake"
  },
  {
    "id": 105524949,
    "link": "https://www.travelmidwest.com/lmiga/showCamera.jsp?id=IL-LAKECOUNTY-cam172_30_51_161&direction=E",
    "name": "Cedar Lake at Rollins",
    "direction": "E",
    "latitude": 42.37889,
    "longitude": -88.0897,
    "imageUrl": "https://www.lakecountypassage.com/snapshots/Cedar_Lake_@_Rollins_cctv_East_Leg.jpg",
    "route": "Cedar Lake"
  },
  {
    "id": 105524950,
    "link": "https://www.travelmidwest.com/lmiga/showCamera.jsp?id=IL-LAKECOUNTY-cam172_30_51_161&direction=S",
    "name": "Cedar Lake at Rollins",
    "direction": "S",
    "latitude": 42.37889,
    "longitude": -88.0897,
    "imageUrl": "https://www.lakecountypassage.com/snapshots/Cedar_Lake_@_Rollins_cctv_South_Leg.jpg",
    "route": "Cedar Lake"
  },
  {
    "id": 105524951,
    "link": "https://www.travelmidwest.com/lmiga/showCamera.jsp?id=IL-LAKECOUNTY-cam172_30_51_161&direction=N",
    "name": "Cedar Lake at Rollins",
    "direction": "N",
    "latitude": 42.37889,
    "longitude": -88.0897,
    "imageUrl": "https://www.lakecountypassage.com/snapshots/Cedar_Lake_@_Rollins_cctv_North_Leg.jpg",
    "route": "Cedar Lake"
  },
  {
    "id": 105524952,
    "link": "https://www.travelmidwest.com/lmiga/showCamera.jsp?id=IL-LAKECOUNTY-186&direction=W",
    "name": "Rollins at Lotus",
    "direction": "W",
    "latitude": 42.37909,
    "longitude": -88.10209,
    "imageUrl": "https://www.lakecountypassage.com/snapshots/Rollins_@_Lotus_cctv_West_Leg.jpg",
    "route": "Rollins"
  },
  {
    "id": 105524953,
    "link": "https://www.travelmidwest.com/lmiga/showCamera.jsp?id=IL-LAKECOUNTY-186&direction=E",
    "name": "Rollins at Lotus",
    "direction": "E",
    "latitude": 42.37909,
    "longitude": -88.10209,
    "imageUrl": "https://www.lakecountypassage.com/snapshots/Rollins_@_Lotus_cctv_East_Leg.jpg",
    "route": "Rollins"
  },
  {
    "id": 105524954,
    "link": "https://www.travelmidwest.com/lmiga/showCamera.jsp?id=IL-LAKECOUNTY-190&direction=W",
    "name": "Fairfield at Rollins",
    "direction": "W",
    "latitude": 42.38269,
    "longitude": -88.112,
    "imageUrl": "https://www.lakecountypassage.com/snapshots/Fairfield_@_Rollins_cctv_West_Leg.jpg",
    "route": "Fairfield"
  },
  {
    "id": 105524955,
    "link": "https://www.travelmidwest.com/lmiga/showCamera.jsp?id=IL-LAKECOUNTY-190&direction=E",
    "name": "Fairfield at Rollins",
    "direction": "E",
    "latitude": 42.38269,
    "longitude": -88.112,
    "imageUrl": "https://www.lakecountypassage.com/snapshots/Fairfield_@_Rollins_cctv_East_Leg.jpg",
    "route": "Fairfield"
  },
  {
    "id": 105524956,
    "link": "https://www.travelmidwest.com/lmiga/showCamera.jsp?id=IL-LAKECOUNTY-190&direction=S",
    "name": "Fairfield at Rollins",
    "direction": "S",
    "latitude": 42.38269,
    "longitude": -88.112,
    "imageUrl": "https://www.lakecountypassage.com/snapshots/Fairfield_@_Rollins_cctv_South_Leg.jpg",
    "route": "Fairfield"
  },
  {
    "id": 105524957,
    "link": "https://www.travelmidwest.com/lmiga/showCamera.jsp?id=IL-LAKECOUNTY-190&direction=N",
    "name": "Fairfield at Rollins",
    "direction": "N",
    "latitude": 42.38269,
    "longitude": -88.112,
    "imageUrl": "https://www.lakecountypassage.com/snapshots/Fairfield_@_Rollins_cctv_North_Leg.jpg",
    "route": "Fairfield"
  },
  {
    "id": 105524958,
    "link": "https://www.travelmidwest.com/lmiga/showCamera.jsp?id=IL-LAKECOUNTY-189&direction=W",
    "name": "Rollins at Wilson",
    "direction": "W",
    "latitude": 42.38119,
    "longitude": -88.1399,
    "imageUrl": "https://www.lakecountypassage.com/snapshots/Rollins_@_Wilson_cctv_West_Leg.jpg",
    "route": "Rollins"
  },
  {
    "id": 105524959,
    "link": "https://www.travelmidwest.com/lmiga/showCamera.jsp?id=IL-LAKECOUNTY-189&direction=E",
    "name": "Rollins at Wilson",
    "direction": "E",
    "latitude": 42.38119,
    "longitude": -88.1399,
    "imageUrl": "https://www.lakecountypassage.com/snapshots/Rollins_@_Wilson_cctv_East_Leg.jpg",
    "route": "Rollins"
  },
  {
    "id": 105524960,
    "link": "https://www.travelmidwest.com/lmiga/showCamera.jsp?id=IL-LAKECOUNTY-189&direction=S",
    "name": "Rollins at Wilson",
    "direction": "S",
    "latitude": 42.38119,
    "longitude": -88.1399,
    "imageUrl": "https://www.lakecountypassage.com/snapshots/Rollins_@_Wilson_cctv_South_Leg.jpg",
    "route": "Rollins"
  },
  {
    "id": 105524961,
    "link": "https://www.travelmidwest.com/lmiga/showCamera.jsp?id=IL-LAKECOUNTY-189&direction=N",
    "name": "Rollins at Wilson",
    "direction": "N",
    "latitude": 42.38119,
    "longitude": -88.1399,
    "imageUrl": "https://www.lakecountypassage.com/snapshots/Rollins_@_Wilson_cctv_North_Leg.jpg",
    "route": "Rollins"
  },
  {
    "id": 105524962,
    "link": "https://www.travelmidwest.com/lmiga/showCamera.jsp?id=IL-LAKECOUNTY-cam172_30_35_161&direction=S",
    "name": "St Marys at Rockland",
    "direction": "S",
    "latitude": 42.27759,
    "longitude": -87.92489,
    "imageUrl": "https://www.lakecountypassage.com/snapshots/St_Marys_@_Rockland_cctv_South_Leg.jpg",
    "route": "St Marys"
  },
  {
    "id": 105524963,
    "link": "https://www.travelmidwest.com/lmiga/showCamera.jsp?id=IL-LAKECOUNTY-cam172_30_35_161&direction=N",
    "name": "St Marys at Rockland",
    "direction": "N",
    "latitude": 42.27759,
    "longitude": -87.92489,
    "imageUrl": "https://www.lakecountypassage.com/snapshots/St_Marys_@_Rockland_cctv_North_Leg.jpg",
    "route": "St Marys"
  },
  {
    "id": 105524964,
    "link": "https://www.travelmidwest.com/lmiga/showCamera.jsp?id=IL-ISTHA-2915&direction=W",
    "name": "TWR PL21 WB (Waukegan) Top",
    "direction": "W",
    "latitude": 42.4314,
    "longitude": -87.9514,
    "imageUrl": "https://www.travelmidwest.com/lmiga/snapshot?id=IL-ISTHA-2915&direction=W",
    "route": "I-94"
  },
  {
    "id": 105524965,
    "link": "https://www.travelmidwest.com/lmiga/showCamera.jsp?id=IL-ISTHA-2915&direction=E",
    "name": "TWR PL21 WB (Waukegan) Top",
    "direction": "E",
    "latitude": 42.4314,
    "longitude": -87.9514,
    "imageUrl": "https://www.travelmidwest.com/lmiga/snapshot?id=IL-ISTHA-2915&direction=E",
    "route": "I-94"
  },
  {
    "id": 105524966,
    "link": "https://www.travelmidwest.com/lmiga/showCamera.jsp?id=IL-IDOT-IK30A",
    "name": "I-290/IL-53 at I-90",
    "direction": "NONE",
    "latitude": 42.05812,
    "longitude": -88.02891,
    "imageUrl": "https://www.travelmidwest.com/lmiga/snapshot?id=IL-IDOT-IK30A",
    "route": "I-290/IL-53"
  },
  {
    "id": 105524967,
    "link": "https://www.travelmidwest.com/lmiga/showCamera.jsp?id=IL-LAKECOUNTY-348&direction=W",
    "name": "US-41 at Stearns School",
    "direction": "W",
    "latitude": 42.39279,
    "longitude": -87.9264,
    "imageUrl": "https://www.lakecountypassage.com/snapshots/US_41_@_Stearns_School_cctv_West_Leg.jpg",
    "route": "US-41"
  },
  {
    "id": 105524968,
    "link": "https://www.travelmidwest.com/lmiga/showCamera.jsp?id=IL-LAKECOUNTY-348&direction=S",
    "name": "US-41 at Stearns School",
    "direction": "S",
    "latitude": 42.39279,
    "longitude": -87.9264,
    "imageUrl": "https://www.lakecountypassage.com/snapshots/US_41_@_Stearns_School_cctv_South_Leg.jpg",
    "route": "US-41"
  },
  {
    "id": 105524969,
    "link": "https://www.travelmidwest.com/lmiga/showCamera.jsp?id=IL-LAKECOUNTY-348&direction=N",
    "name": "US-41 at Stearns School",
    "direction": "N",
    "latitude": 42.39279,
    "longitude": -87.9264,
    "imageUrl": "https://www.lakecountypassage.com/snapshots/US_41_@_Stearns_School_cctv_North_Leg.jpg",
    "route": "US-41"
  },
  {
    "id": 105524970,
    "link": "https://www.travelmidwest.com/lmiga/showCamera.jsp?id=IL-IDOTD4-camera_519&direction=E",
    "name": "I-74 at University Ave.",
    "direction": "E",
    "latitude": 40.12166,
    "longitude": -88.17337,
    "imageUrl": "https://www.travelmidwest.com/lmiga/snapshot?id=IL-IDOTD4-camera_519&direction=E",
    "route": "I-74"
  },
  {
    "id": 105524971,
    "link": "https://www.travelmidwest.com/lmiga/showCamera.jsp?id=IL-DUPAGECOUNTY-35&direction=W",
    "name": "75th / Beebe",
    "direction": "W",
    "latitude": 41.74729,
    "longitude": -88.2002,
    "imageUrl": "https://www.travelmidwest.com/lmiga/snapshot?id=IL-DUPAGECOUNTY-35&direction=W",
    "route": "75th"
  },
  {
    "id": 105524972,
    "link": "https://www.travelmidwest.com/lmiga/showCamera.jsp?id=IL-DUPAGECOUNTY-35&direction=E",
    "name": "75th / Beebe",
    "direction": "E",
    "latitude": 41.74729,
    "longitude": -88.2002,
    "imageUrl": "https://www.travelmidwest.com/lmiga/snapshot?id=IL-DUPAGECOUNTY-35&direction=E",
    "route": "75th"
  },
  {
    "id": 105524973,
    "link": "https://www.travelmidwest.com/lmiga/showCamera.jsp?id=IL-IDOTD4-camera_518&direction=E",
    "name": "I-74 at Cunningham Ave.",
    "direction": "E",
    "latitude": 40.13378,
    "longitude": -88.19607,
    "imageUrl": "https://www.travelmidwest.com/lmiga/snapshot?id=IL-IDOTD4-camera_518&direction=E",
    "route": "I-74"
  },
  {
    "id": 105524974,
    "link": "https://www.travelmidwest.com/lmiga/showCamera.jsp?id=IL-DUPAGECOUNTY-56&direction=W",
    "name": "Diehl / Raymond",
    "direction": "W",
    "latitude": 41.80168,
    "longitude": -88.1889,
    "imageUrl": "https://www.travelmidwest.com/lmiga/snapshot?id=IL-DUPAGECOUNTY-56&direction=W",
    "route": "Diehl"
  },
  {
    "id": 105524975,
    "link": "https://www.travelmidwest.com/lmiga/showCamera.jsp?id=IL-DUPAGECOUNTY-56&direction=E",
    "name": "Diehl / Raymond",
    "direction": "E",
    "latitude": 41.80168,
    "longitude": -88.1889,
    "imageUrl": "https://www.travelmidwest.com/lmiga/snapshot?id=IL-DUPAGECOUNTY-56&direction=E",
    "route": "Diehl"
  },
  {
    "id": 105524976,
    "link": "https://www.travelmidwest.com/lmiga/showCamera.jsp?id=IL-DUPAGECOUNTY-56&direction=S",
    "name": "Diehl / Raymond",
    "direction": "S",
    "latitude": 41.80168,
    "longitude": -88.1889,
    "imageUrl": "https://www.travelmidwest.com/lmiga/snapshot?id=IL-DUPAGECOUNTY-56&direction=S",
    "route": "Diehl"
  },
  {
    "id": 105524977,
    "link": "https://www.travelmidwest.com/lmiga/showCamera.jsp?id=IL-DUPAGECOUNTY-56&direction=N",
    "name": "Diehl / Raymond",
    "direction": "N",
    "latitude": 41.80168,
    "longitude": -88.1889,
    "imageUrl": "https://www.travelmidwest.com/lmiga/snapshot?id=IL-DUPAGECOUNTY-56&direction=N",
    "route": "Diehl"
  },
  {
    "id": 105524978,
    "link": "https://www.travelmidwest.com/lmiga/showCamera.jsp?id=IL-LAKECOUNTY-170&direction=W",
    "name": "Grand at McAree",
    "direction": "W",
    "latitude": 42.37029,
    "longitude": -87.8654,
    "imageUrl": "https://www.lakecountypassage.com/snapshots/Grand_@_McAree_cctv_West_Leg.jpg",
    "route": "Grand"
  },
  {
    "id": 105524979,
    "link": "https://www.travelmidwest.com/lmiga/showCamera.jsp?id=IL-LAKECOUNTY-170&direction=E",
    "name": "Grand at McAree",
    "direction": "E",
    "latitude": 42.37029,
    "longitude": -87.8654,
    "imageUrl": "https://www.lakecountypassage.com/snapshots/Grand_@_McAree_cctv_East_Leg.jpg",
    "route": "Grand"
  },
  {
    "id": 105524980,
    "link": "https://www.travelmidwest.com/lmiga/showCamera.jsp?id=IL-IDOTD4-camera_521&direction=W",
    "name": "I-74 at Bowman Ave.",
    "direction": "W",
    "latitude": 40.11407,
    "longitude": -87.61034,
    "imageUrl": "https://www.travelmidwest.com/lmiga/snapshot?id=IL-IDOTD4-camera_521&direction=W",
    "route": "I-74"
  },
  {
    "id": 105524981,
    "link": "https://www.travelmidwest.com/lmiga/showCamera.jsp?id=IL-DUPAGECOUNTY-55&direction=W",
    "name": "Ferry / Raymond",
    "direction": "W",
    "latitude": 41.80699,
    "longitude": -88.18849,
    "imageUrl": "https://www.travelmidwest.com/lmiga/snapshot?id=IL-DUPAGECOUNTY-55&direction=W",
    "route": "Ferry"
  },
  {
    "id": 105524982,
    "link": "https://www.travelmidwest.com/lmiga/showCamera.jsp?id=IL-DUPAGECOUNTY-55&direction=E",
    "name": "Ferry / Raymond",
    "direction": "E",
    "latitude": 41.80699,
    "longitude": -88.18849,
    "imageUrl": "https://www.travelmidwest.com/lmiga/snapshot?id=IL-DUPAGECOUNTY-55&direction=E",
    "route": "Ferry"
  },
  {
    "id": 105524983,
    "link": "https://www.travelmidwest.com/lmiga/showCamera.jsp?id=IL-IDOTD4-camera_520&direction=E",
    "name": "I-74 at Mile Post 189.1",
    "direction": "E",
    "latitude": 40.12079,
    "longitude": -88.10461,
    "imageUrl": "https://www.travelmidwest.com/lmiga/snapshot?id=IL-IDOTD4-camera_520&direction=E",
    "route": "I-74"
  },
  {
    "id": 105524984,
    "link": "https://www.travelmidwest.com/lmiga/showCamera.jsp?id=IL-LAKECOUNTY-31302&direction=W",
    "name": "IL-83 at Hawley",
    "direction": "W",
    "latitude": 42.26919,
    "longitude": -88.0337,
    "imageUrl": "https://www.lakecountypassage.com/snapshots/IL_83_@_Hawley_cctv_West_Leg.jpg",
    "route": "IL-83"
  },
  {
    "id": 105524985,
    "link": "https://www.travelmidwest.com/lmiga/showCamera.jsp?id=IL-LAKECOUNTY-31302&direction=E",
    "name": "IL-83 at Hawley",
    "direction": "E",
    "latitude": 42.26919,
    "longitude": -88.0337,
    "imageUrl": "https://www.lakecountypassage.com/snapshots/IL_83_@_Hawley_cctv_East_Leg.jpg",
    "route": "IL-83"
  },
  {
    "id": 105524986,
    "link": "https://www.travelmidwest.com/lmiga/showCamera.jsp?id=IL-LAKECOUNTY-31302&direction=S",
    "name": "IL-83 at Hawley",
    "direction": "S",
    "latitude": 42.26919,
    "longitude": -88.0337,
    "imageUrl": "https://www.lakecountypassage.com/snapshots/IL_83_@_Hawley_cctv_South_Leg.jpg",
    "route": "IL-83"
  },
  {
    "id": 105524987,
    "link": "https://www.travelmidwest.com/lmiga/showCamera.jsp?id=IL-LAKECOUNTY-31302&direction=N",
    "name": "IL-83 at Hawley",
    "direction": "N",
    "latitude": 42.26919,
    "longitude": -88.0337,
    "imageUrl": "https://www.lakecountypassage.com/snapshots/IL_83_@_Hawley_cctv_North_Leg.jpg",
    "route": "IL-83"
  },
  {
    "id": 105524988,
    "link": "https://www.travelmidwest.com/lmiga/showCamera.jsp?id=IL-DUPAGECOUNTY-33&direction=W",
    "name": "75th / Greene",
    "direction": "W",
    "latitude": 41.7494,
    "longitude": -88.0744,
    "imageUrl": "https://www.travelmidwest.com/lmiga/snapshot?id=IL-DUPAGECOUNTY-33&direction=W",
    "route": "75th"
  },
  {
    "id": 105524989,
    "link": "https://www.travelmidwest.com/lmiga/showCamera.jsp?id=IL-DUPAGECOUNTY-33&direction=E",
    "name": "75th / Greene",
    "direction": "E",
    "latitude": 41.7494,
    "longitude": -88.0744,
    "imageUrl": "https://www.travelmidwest.com/lmiga/snapshot?id=IL-DUPAGECOUNTY-33&direction=E",
    "route": "75th"
  },
  {
    "id": 105524990,
    "link": "https://www.travelmidwest.com/lmiga/showCamera.jsp?id=IL-IDOTD4-camera_523&direction=E",
    "name": "Bus-55 (Veteran's Parkway) at Morrissey",
    "direction": "E",
    "latitude": 40.45958,
    "longitude": -88.97033,
    "imageUrl": "https://www.travelmidwest.com/lmiga/snapshot?id=IL-IDOTD4-camera_523&direction=E",
    "route": "Bus-55"
  },
  {
    "id": 105524991,
    "link": "https://www.travelmidwest.com/lmiga/showCamera.jsp?id=IL-DUPAGECOUNTY-11&direction=W",
    "name": "Bloomingdale / Fullerton",
    "direction": "W",
    "latitude": 41.91748,
    "longitude": -88.08139,
    "imageUrl": "https://www.travelmidwest.com/lmiga/snapshot?id=IL-DUPAGECOUNTY-11&direction=W",
    "route": "Bloomingdale"
  },
  {
    "id": 105524992,
    "link": "https://www.travelmidwest.com/lmiga/showCamera.jsp?id=IL-DUPAGECOUNTY-11&direction=E",
    "name": "Bloomingdale / Fullerton",
    "direction": "E",
    "latitude": 41.91748,
    "longitude": -88.08139,
    "imageUrl": "https://www.travelmidwest.com/lmiga/snapshot?id=IL-DUPAGECOUNTY-11&direction=E",
    "route": "Bloomingdale"
  },
  {
    "id": 105524993,
    "link": "https://www.travelmidwest.com/lmiga/showCamera.jsp?id=IL-DUPAGECOUNTY-11&direction=S",
    "name": "Bloomingdale / Fullerton",
    "direction": "S",
    "latitude": 41.91748,
    "longitude": -88.08139,
    "imageUrl": "https://www.travelmidwest.com/lmiga/snapshot?id=IL-DUPAGECOUNTY-11&direction=S",
    "route": "Bloomingdale"
  },
  {
    "id": 105524994,
    "link": "https://www.travelmidwest.com/lmiga/showCamera.jsp?id=IL-DUPAGECOUNTY-11&direction=N",
    "name": "Bloomingdale / Fullerton",
    "direction": "N",
    "latitude": 41.91748,
    "longitude": -88.08139,
    "imageUrl": "https://www.travelmidwest.com/lmiga/snapshot?id=IL-DUPAGECOUNTY-11&direction=N",
    "route": "Bloomingdale"
  },
  {
    "id": 105524995,
    "link": "https://www.travelmidwest.com/lmiga/showCamera.jsp?id=IL-KANECOUNTY-269",
    "name": "Randall Rd at Orchard Mooseheart",
    "direction": "NONE",
    "latitude": 41.81864,
    "longitude": -88.34658,
    "imageUrl": "https://www.travelmidwest.com/lmiga/snapshot?id=IL-KANECOUNTY-269",
    "route": "Randall Rd"
  },
  {
    "id": 105524996,
    "link": "https://www.travelmidwest.com/lmiga/showCamera.jsp?id=IL-IDOTD4-camera_522&direction=W",
    "name": "Bus-55 (Veteran's Parkway) at Morris",
    "direction": "W",
    "latitude": 40.45812,
    "longitude": -89.0059,
    "imageUrl": "https://www.travelmidwest.com/lmiga/snapshot?id=IL-IDOTD4-camera_522&direction=W",
    "route": "Bus-55"
  },
  {
    "id": 105524997,
    "link": "https://www.travelmidwest.com/lmiga/showCamera.jsp?id=IL-DUPAGECOUNTY-32&direction=W",
    "name": "75th / Wherli",
    "direction": "W",
    "latitude": 41.749,
    "longitude": -88.10359,
    "imageUrl": "https://www.travelmidwest.com/lmiga/snapshot?id=IL-DUPAGECOUNTY-32&direction=W",
    "route": "75th"
  },
  {
    "id": 105524998,
    "link": "https://www.travelmidwest.com/lmiga/showCamera.jsp?id=IL-DUPAGECOUNTY-32&direction=E",
    "name": "75th / Wherli",
    "direction": "E",
    "latitude": 41.749,
    "longitude": -88.10359,
    "imageUrl": "https://www.travelmidwest.com/lmiga/snapshot?id=IL-DUPAGECOUNTY-32&direction=E",
    "route": "75th"
  },
  {
    "id": 105524999,
    "link": "https://www.travelmidwest.com/lmiga/showCamera.jsp?id=IL-IDOTD4-camera_525&direction=N",
    "name": "Bus-55 (Veteran's Parkway) at Oakland",
    "direction": "N",
    "latitude": 40.47335,
    "longitude": -88.95211,
    "imageUrl": "https://www.travelmidwest.com/lmiga/snapshot?id=IL-IDOTD4-camera_525&direction=N",
    "route": "Bus-55"
  },
  {
    "id": 105525000,
    "link": "https://www.travelmidwest.com/lmiga/showCamera.jsp?id=IL-DUPAGECOUNTY-54&direction=W",
    "name": "Diehl / Mill",
    "direction": "W",
    "latitude": 41.8013,
    "longitude": -88.1547,
    "imageUrl": "https://www.travelmidwest.com/lmiga/snapshot?id=IL-DUPAGECOUNTY-54&direction=W",
    "route": "Diehl"
  },
  {
    "id": 105525001,
    "link": "https://www.travelmidwest.com/lmiga/showCamera.jsp?id=IL-DUPAGECOUNTY-54&direction=E",
    "name": "Diehl / Mill",
    "direction": "E",
    "latitude": 41.8013,
    "longitude": -88.1547,
    "imageUrl": "https://www.travelmidwest.com/lmiga/snapshot?id=IL-DUPAGECOUNTY-54&direction=E",
    "route": "Diehl"
  },
  {
    "id": 105525002,
    "link": "https://www.travelmidwest.com/lmiga/showCamera.jsp?id=IL-DUPAGECOUNTY-54&direction=S",
    "name": "Diehl / Mill",
    "direction": "S",
    "latitude": 41.8013,
    "longitude": -88.1547,
    "imageUrl": "https://www.travelmidwest.com/lmiga/snapshot?id=IL-DUPAGECOUNTY-54&direction=S",
    "route": "Diehl"
  },
  {
    "id": 105525003,
    "link": "https://www.travelmidwest.com/lmiga/showCamera.jsp?id=IL-DUPAGECOUNTY-54&direction=N",
    "name": "Diehl / Mill",
    "direction": "N",
    "latitude": 41.8013,
    "longitude": -88.1547,
    "imageUrl": "https://www.travelmidwest.com/lmiga/snapshot?id=IL-DUPAGECOUNTY-54&direction=N",
    "route": "Diehl"
  },
  {
    "id": 105525004,
    "link": "https://www.travelmidwest.com/lmiga/showCamera.jsp?id=IL-DUPAGECOUNTY-53&direction=W",
    "name": "Winfield / Diehl",
    "direction": "W",
    "latitude": 41.80168,
    "longitude": -88.16729,
    "imageUrl": "https://www.travelmidwest.com/lmiga/snapshot?id=IL-DUPAGECOUNTY-53&direction=W",
    "route": "Winfield"
  },
  {
    "id": 105525005,
    "link": "https://www.travelmidwest.com/lmiga/showCamera.jsp?id=IL-DUPAGECOUNTY-53&direction=E",
    "name": "Winfield / Diehl",
    "direction": "E",
    "latitude": 41.80168,
    "longitude": -88.16729,
    "imageUrl": "https://www.travelmidwest.com/lmiga/snapshot?id=IL-DUPAGECOUNTY-53&direction=E",
    "route": "Winfield"
  },
  {
    "id": 105525006,
    "link": "https://www.travelmidwest.com/lmiga/showCamera.jsp?id=IL-LAKECOUNTY-cam172_30_33_97&direction=W",
    "name": "IL-131 at IL-137",
    "direction": "W",
    "latitude": 42.30859,
    "longitude": -87.8625,
    "imageUrl": "https://www.lakecountypassage.com/snapshots/IL_131_@_IL_137_cctv_West_Leg.jpg",
    "route": "IL-131"
  },
  {
    "id": 105525007,
    "link": "https://www.travelmidwest.com/lmiga/showCamera.jsp?id=IL-LAKECOUNTY-cam172_30_33_97&direction=E",
    "name": "IL-131 at IL-137",
    "direction": "E",
    "latitude": 42.30859,
    "longitude": -87.8625,
    "imageUrl": "https://www.lakecountypassage.com/snapshots/IL_131_@_IL_137_cctv_East_Leg.jpg",
    "route": "IL-131"
  },
  {
    "id": 105525008,
    "link": "https://www.travelmidwest.com/lmiga/showCamera.jsp?id=IL-LAKECOUNTY-cam172_30_33_97&direction=S",
    "name": "IL-131 at IL-137",
    "direction": "S",
    "latitude": 42.30859,
    "longitude": -87.8625,
    "imageUrl": "https://www.lakecountypassage.com/snapshots/IL_131_@_IL_137_cctv_South_Leg.jpg",
    "route": "IL-131"
  },
  {
    "id": 105525009,
    "link": "https://www.travelmidwest.com/lmiga/showCamera.jsp?id=IL-LAKECOUNTY-cam172_30_33_97&direction=N",
    "name": "IL-131 at IL-137",
    "direction": "N",
    "latitude": 42.30859,
    "longitude": -87.8625,
    "imageUrl": "https://www.lakecountypassage.com/snapshots/IL_131_@_IL_137_cctv_North_Leg.jpg",
    "route": "IL-131"
  },
  {
    "id": 105525010,
    "link": "https://www.travelmidwest.com/lmiga/showCamera.jsp?id=IL-IDOTD4-camera_511&direction=S",
    "name": "I-57 at Mile Post 242.8",
    "direction": "S",
    "latitude": 40.20866,
    "longitude": -88.2179,
    "imageUrl": "https://www.travelmidwest.com/lmiga/snapshot?id=IL-IDOTD4-camera_511&direction=S",
    "route": "I-57"
  },
  {
    "id": 105525011,
    "link": "https://www.travelmidwest.com/lmiga/showCamera.jsp?id=IL-DUPAGECOUNTY-2&direction=S",
    "name": "County Farm / Jewell",
    "direction": "S",
    "latitude": 41.8739,
    "longitude": -88.1462,
    "imageUrl": "https://www.travelmidwest.com/lmiga/snapshot?id=IL-DUPAGECOUNTY-2&direction=S",
    "route": "County Farm"
  },
  {
    "id": 105525012,
    "link": "https://www.travelmidwest.com/lmiga/showCamera.jsp?id=IL-DUPAGECOUNTY-2&direction=N",
    "name": "County Farm / Jewell",
    "direction": "N",
    "latitude": 41.8739,
    "longitude": -88.1462,
    "imageUrl": "https://www.travelmidwest.com/lmiga/snapshot?id=IL-DUPAGECOUNTY-2&direction=N",
    "route": "County Farm"
  },
  {
    "id": 105525013,
    "link": "https://www.travelmidwest.com/lmiga/showCamera.jsp?id=IL-IDOTD4-camera_510&direction=S",
    "name": "I-57 at Market St.",
    "direction": "S",
    "latitude": 40.18104,
    "longitude": -88.24489,
    "imageUrl": "https://www.travelmidwest.com/lmiga/snapshot?id=IL-IDOTD4-camera_510&direction=S",
    "route": "I-57"
  },
  {
    "id": 105525014,
    "link": "https://www.travelmidwest.com/lmiga/showCamera.jsp?id=IL-DUPAGECOUNTY-1&direction=S",
    "name": "County Farm / Main Ent",
    "direction": "S",
    "latitude": 41.86819,
    "longitude": -88.14399,
    "imageUrl": "https://www.travelmidwest.com/lmiga/snapshot?id=IL-DUPAGECOUNTY-1&direction=S",
    "route": "County Farm"
  },
  {
    "id": 105525015,
    "link": "https://www.travelmidwest.com/lmiga/showCamera.jsp?id=IL-DUPAGECOUNTY-1&direction=N",
    "name": "County Farm / Main Ent",
    "direction": "N",
    "latitude": 41.86819,
    "longitude": -88.14399,
    "imageUrl": "https://www.travelmidwest.com/lmiga/snapshot?id=IL-DUPAGECOUNTY-1&direction=N",
    "route": "County Farm"
  },
  {
    "id": 105525016,
    "link": "https://www.travelmidwest.com/lmiga/showCamera.jsp?id=IL-DUPAGECOUNTY-38&direction=S",
    "name": "County Farm / Williams",
    "direction": "S",
    "latitude": 41.85948,
    "longitude": -88.1426,
    "imageUrl": "https://www.travelmidwest.com/lmiga/snapshot?id=IL-DUPAGECOUNTY-38&direction=S",
    "route": "County Farm"
  },
  {
    "id": 105525017,
    "link": "https://www.travelmidwest.com/lmiga/showCamera.jsp?id=IL-DUPAGECOUNTY-38&direction=N",
    "name": "County Farm / Williams",
    "direction": "N",
    "latitude": 41.85948,
    "longitude": -88.1426,
    "imageUrl": "https://www.travelmidwest.com/lmiga/snapshot?id=IL-DUPAGECOUNTY-38&direction=N",
    "route": "County Farm"
  },
  {
    "id": 105525018,
    "link": "https://www.travelmidwest.com/lmiga/showCamera.jsp?id=IL-IDOTD4-camera_512&direction=W",
    "name": "I-72 at Mile Post 178.3",
    "direction": "W",
    "latitude": 40.12026,
    "longitude": -88.37032,
    "imageUrl": "https://www.travelmidwest.com/lmiga/snapshot?id=IL-IDOTD4-camera_512&direction=W",
    "route": "I-72"
  },
  {
    "id": 105525019,
    "link": "https://www.travelmidwest.com/lmiga/showCamera.jsp?id=IL-DUPAGECOUNTY-15&direction=S",
    "name": "Schmale / Fullerton",
    "direction": "S",
    "latitude": 41.91699,
    "longitude": -88.10099,
    "imageUrl": "https://www.travelmidwest.com/lmiga/snapshot?id=IL-DUPAGECOUNTY-15&direction=S",
    "route": "Schmale"
  },
  {
    "id": 105525020,
    "link": "https://www.travelmidwest.com/lmiga/showCamera.jsp?id=IL-DUPAGECOUNTY-15&direction=N",
    "name": "Schmale / Fullerton",
    "direction": "N",
    "latitude": 41.91699,
    "longitude": -88.10099,
    "imageUrl": "https://www.travelmidwest.com/lmiga/snapshot?id=IL-DUPAGECOUNTY-15&direction=N",
    "route": "Schmale"
  },
  {
    "id": 105525021,
    "link": "https://www.travelmidwest.com/lmiga/showCamera.jsp?id=IL-DUPAGECOUNTY-37&direction=W",
    "name": "75th / Olympus",
    "direction": "W",
    "latitude": 41.7481,
    "longitude": -88.13919,
    "imageUrl": "https://www.travelmidwest.com/lmiga/snapshot?id=IL-DUPAGECOUNTY-37&direction=W",
    "route": "75th"
  },
  {
    "id": 105525022,
    "link": "https://www.travelmidwest.com/lmiga/showCamera.jsp?id=IL-DUPAGECOUNTY-37&direction=E",
    "name": "75th / Olympus",
    "direction": "E",
    "latitude": 41.7481,
    "longitude": -88.13919,
    "imageUrl": "https://www.travelmidwest.com/lmiga/snapshot?id=IL-DUPAGECOUNTY-37&direction=E",
    "route": "75th"
  },
  {
    "id": 105525023,
    "link": "https://www.travelmidwest.com/lmiga/showCamera.jsp?id=IL-IDOTD4-camera_515&direction=E",
    "name": "I-74 at Prospect Ave.",
    "direction": "E",
    "latitude": 40.13475,
    "longitude": -88.25781,
    "imageUrl": "https://www.travelmidwest.com/lmiga/snapshot?id=IL-IDOTD4-camera_515&direction=E",
    "route": "I-74"
  },
  {
    "id": 105525024,
    "link": "https://www.travelmidwest.com/lmiga/showCamera.jsp?id=IL-DUPAGECOUNTY-14&direction=W",
    "name": "Army Trail-/ Schmale",
    "direction": "W",
    "latitude": 41.93888,
    "longitude": -88.10099,
    "imageUrl": "https://www.travelmidwest.com/lmiga/snapshot?id=IL-DUPAGECOUNTY-14&direction=W",
    "route": "Army Trail"
  },
  {
    "id": 105525025,
    "link": "https://www.travelmidwest.com/lmiga/showCamera.jsp?id=IL-DUPAGECOUNTY-14&direction=E",
    "name": "Army Trail-/ Schmale",
    "direction": "E",
    "latitude": 41.93888,
    "longitude": -88.10099,
    "imageUrl": "https://www.travelmidwest.com/lmiga/snapshot?id=IL-DUPAGECOUNTY-14&direction=E",
    "route": "Army Trail"
  },
  {
    "id": 105525026,
    "link": "https://www.travelmidwest.com/lmiga/showCamera.jsp?id=IL-DUPAGECOUNTY-58&direction=W",
    "name": "75th / Woodward",
    "direction": "W",
    "latitude": 41.7507,
    "longitude": -88.03099,
    "imageUrl": "https://www.travelmidwest.com/lmiga/snapshot?id=IL-DUPAGECOUNTY-58&direction=W",
    "route": "75th"
  },
  {
    "id": 105525027,
    "link": "https://www.travelmidwest.com/lmiga/showCamera.jsp?id=IL-DUPAGECOUNTY-58&direction=E",
    "name": "75th / Woodward",
    "direction": "E",
    "latitude": 41.7507,
    "longitude": -88.03099,
    "imageUrl": "https://www.travelmidwest.com/lmiga/snapshot?id=IL-DUPAGECOUNTY-58&direction=E",
    "route": "75th"
  },
  {
    "id": 105525028,
    "link": "https://www.travelmidwest.com/lmiga/showCamera.jsp?id=IL-DUPAGECOUNTY-57&direction=W",
    "name": "75th / Plainfield-Naperville",
    "direction": "W",
    "latitude": 41.7476,
    "longitude": -88.16729,
    "imageUrl": "https://www.travelmidwest.com/lmiga/snapshot?id=IL-DUPAGECOUNTY-57&direction=W",
    "route": "75th"
  },
  {
    "id": 105525029,
    "link": "https://www.travelmidwest.com/lmiga/showCamera.jsp?id=IL-DUPAGECOUNTY-57&direction=E",
    "name": "75th / Plainfield-Naperville",
    "direction": "E",
    "latitude": 41.7476,
    "longitude": -88.16729,
    "imageUrl": "https://www.travelmidwest.com/lmiga/snapshot?id=IL-DUPAGECOUNTY-57&direction=E",
    "route": "75th"
  },
  {
    "id": 105525030,
    "link": "https://www.travelmidwest.com/lmiga/showCamera.jsp?id=IL-IDOTD4-camera_534&direction=S",
    "name": "US-45 (Neil-St.) at Kirby",
    "direction": "S",
    "latitude": 40.09829,
    "longitude": -88.2444,
    "imageUrl": "https://www.travelmidwest.com/lmiga/snapshot?id=IL-IDOTD4-camera_534&direction=S",
    "route": "US-45"
  },
  {
    "id": 105525031,
    "link": "https://www.travelmidwest.com/lmiga/showCamera.jsp?id=IL-DUPAGECOUNTY-21&direction=W",
    "name": "75th / Woodridge",
    "direction": "W",
    "latitude": 41.75019,
    "longitude": -88.0522,
    "imageUrl": "https://www.travelmidwest.com/lmiga/snapshot?id=IL-DUPAGECOUNTY-21&direction=W",
    "route": "75th"
  },
  {
    "id": 105525032,
    "link": "https://www.travelmidwest.com/lmiga/showCamera.jsp?id=IL-DUPAGECOUNTY-21&direction=E",
    "name": "75th / Woodridge",
    "direction": "E",
    "latitude": 41.75019,
    "longitude": -88.0522,
    "imageUrl": "https://www.travelmidwest.com/lmiga/snapshot?id=IL-DUPAGECOUNTY-21&direction=E",
    "route": "75th"
  },
  {
    "id": 105525033,
    "link": "https://www.travelmidwest.com/lmiga/showCamera.jsp?id=IL-DUPAGECOUNTY-42&direction=W",
    "name": "Warrenville / Naperville",
    "direction": "W",
    "latitude": 41.80899,
    "longitude": -88.1173,
    "imageUrl": "https://www.travelmidwest.com/lmiga/snapshot?id=IL-DUPAGECOUNTY-42&direction=W",
    "route": "Warrenville"
  },
  {
    "id": 105525034,
    "link": "https://www.travelmidwest.com/lmiga/showCamera.jsp?id=IL-DUPAGECOUNTY-42&direction=E",
    "name": "Warrenville / Naperville",
    "direction": "E",
    "latitude": 41.80899,
    "longitude": -88.1173,
    "imageUrl": "https://www.travelmidwest.com/lmiga/snapshot?id=IL-DUPAGECOUNTY-42&direction=E",
    "route": "Warrenville"
  },
  {
    "id": 105525035,
    "link": "https://www.travelmidwest.com/lmiga/showCamera.jsp?id=IL-DUPAGECOUNTY-42&direction=S",
    "name": "Warrenville / Naperville",
    "direction": "S",
    "latitude": 41.80899,
    "longitude": -88.1173,
    "imageUrl": "https://www.travelmidwest.com/lmiga/snapshot?id=IL-DUPAGECOUNTY-42&direction=S",
    "route": "Warrenville"
  },
  {
    "id": 105525036,
    "link": "https://www.travelmidwest.com/lmiga/showCamera.jsp?id=IL-DUPAGECOUNTY-42&direction=N",
    "name": "Warrenville / Naperville",
    "direction": "N",
    "latitude": 41.80899,
    "longitude": -88.1173,
    "imageUrl": "https://www.travelmidwest.com/lmiga/snapshot?id=IL-DUPAGECOUNTY-42&direction=N",
    "route": "Warrenville"
  },
  {
    "id": 105525037,
    "link": "https://www.travelmidwest.com/lmiga/showCamera.jsp?id=IL-DUPAGECOUNTY-20&direction=W",
    "name": "75th / Naper",
    "direction": "W",
    "latitude": 41.74879,
    "longitude": -88.11509,
    "imageUrl": "https://www.travelmidwest.com/lmiga/snapshot?id=IL-DUPAGECOUNTY-20&direction=W",
    "route": "75th"
  },
  {
    "id": 105525038,
    "link": "https://www.travelmidwest.com/lmiga/showCamera.jsp?id=IL-DUPAGECOUNTY-20&direction=E",
    "name": "75th / Naper",
    "direction": "E",
    "latitude": 41.74879,
    "longitude": -88.11509,
    "imageUrl": "https://www.travelmidwest.com/lmiga/snapshot?id=IL-DUPAGECOUNTY-20&direction=E",
    "route": "75th"
  },
  {
    "id": 105525039,
    "link": "https://www.travelmidwest.com/lmiga/showCamera.jsp?id=IL-DUPAGECOUNTY-20&direction=S",
    "name": "75th / Naper",
    "direction": "S",
    "latitude": 41.74879,
    "longitude": -88.11509,
    "imageUrl": "https://www.travelmidwest.com/lmiga/snapshot?id=IL-DUPAGECOUNTY-20&direction=S",
    "route": "75th"
  },
  {
    "id": 105525040,
    "link": "https://www.travelmidwest.com/lmiga/showCamera.jsp?id=IL-DUPAGECOUNTY-20&direction=N",
    "name": "75th / Naper",
    "direction": "N",
    "latitude": 41.74879,
    "longitude": -88.11509,
    "imageUrl": "https://www.travelmidwest.com/lmiga/snapshot?id=IL-DUPAGECOUNTY-20&direction=N",
    "route": "75th"
  },
  {
    "id": 105525041,
    "link": "https://www.travelmidwest.com/lmiga/showCamera.jsp?id=IL-DUPAGECOUNTY-9&direction=W",
    "name": "Army Trail-/ Bloomingdale",
    "direction": "W",
    "latitude": 41.93709,
    "longitude": -88.0802,
    "imageUrl": "https://www.travelmidwest.com/lmiga/snapshot?id=IL-DUPAGECOUNTY-9&direction=W",
    "route": "Army Trail"
  },
  {
    "id": 105525042,
    "link": "https://www.travelmidwest.com/lmiga/showCamera.jsp?id=IL-DUPAGECOUNTY-9&direction=E",
    "name": "Army Trail-/ Bloomingdale",
    "direction": "E",
    "latitude": 41.93709,
    "longitude": -88.0802,
    "imageUrl": "https://www.travelmidwest.com/lmiga/snapshot?id=IL-DUPAGECOUNTY-9&direction=E",
    "route": "Army Trail"
  },
  {
    "id": 105525043,
    "link": "https://www.travelmidwest.com/lmiga/showCamera.jsp?id=IL-DUPAGECOUNTY-9&direction=S",
    "name": "Army Trail-/ Bloomingdale",
    "direction": "S",
    "latitude": 41.93709,
    "longitude": -88.0802,
    "imageUrl": "https://www.travelmidwest.com/lmiga/snapshot?id=IL-DUPAGECOUNTY-9&direction=S",
    "route": "Army Trail"
  },
  {
    "id": 105525044,
    "link": "https://www.travelmidwest.com/lmiga/showCamera.jsp?id=IL-DUPAGECOUNTY-9&direction=N",
    "name": "Army Trail-/ Bloomingdale",
    "direction": "N",
    "latitude": 41.93709,
    "longitude": -88.0802,
    "imageUrl": "https://www.travelmidwest.com/lmiga/snapshot?id=IL-DUPAGECOUNTY-9&direction=N",
    "route": "Army Trail"
  },
  {
    "id": 105525045,
    "link": "https://www.travelmidwest.com/lmiga/showCamera.jsp?id=IL-DUPAGECOUNTY-3&direction=W",
    "name": "Schmale / St. Charles",
    "direction": "W",
    "latitude": 41.89749,
    "longitude": -88.10199,
    "imageUrl": "https://www.travelmidwest.com/lmiga/snapshot?id=IL-DUPAGECOUNTY-3&direction=W",
    "route": "Schmale"
  },
  {
    "id": 105525046,
    "link": "https://www.travelmidwest.com/lmiga/showCamera.jsp?id=IL-DUPAGECOUNTY-3&direction=E",
    "name": "Schmale / St. Charles",
    "direction": "E",
    "latitude": 41.89749,
    "longitude": -88.10199,
    "imageUrl": "https://www.travelmidwest.com/lmiga/snapshot?id=IL-DUPAGECOUNTY-3&direction=E",
    "route": "Schmale"
  },
  {
    "id": 105525047,
    "link": "https://www.travelmidwest.com/lmiga/showCamera.jsp?id=IL-DUPAGECOUNTY-3&direction=S",
    "name": "Schmale / St. Charles",
    "direction": "S",
    "latitude": 41.89749,
    "longitude": -88.10199,
    "imageUrl": "https://www.travelmidwest.com/lmiga/snapshot?id=IL-DUPAGECOUNTY-3&direction=S",
    "route": "Schmale"
  },
  {
    "id": 105525048,
    "link": "https://www.travelmidwest.com/lmiga/showCamera.jsp?id=IL-DUPAGECOUNTY-3&direction=N",
    "name": "Schmale / St. Charles",
    "direction": "N",
    "latitude": 41.89749,
    "longitude": -88.10199,
    "imageUrl": "https://www.travelmidwest.com/lmiga/snapshot?id=IL-DUPAGECOUNTY-3&direction=N",
    "route": "Schmale"
  },
  {
    "id": 105525049,
    "link": "https://www.travelmidwest.com/lmiga/showCamera.jsp?id=IL-IDOTD4-camera_526&direction=N",
    "name": "Bus-55 (Veteran's Parkway) at Washington",
    "direction": "N",
    "latitude": 40.48041,
    "longitude": -88.95245,
    "imageUrl": "https://www.travelmidwest.com/lmiga/snapshot?id=IL-IDOTD4-camera_526&direction=N",
    "route": "Bus-55"
  },
  {
    "id": 105525050,
    "link": "https://www.travelmidwest.com/lmiga/showCamera.jsp?id=IL-IDOTD4-camera_529&direction=S",
    "name": "Bus-55 (Veteran's Parkway) at College",
    "direction": "S",
    "latitude": 40.51053,
    "longitude": -88.95371,
    "imageUrl": "https://www.travelmidwest.com/lmiga/snapshot?id=IL-IDOTD4-camera_529&direction=S",
    "route": "Bus-55"
  },
  {
    "id": 105525051,
    "link": "https://www.travelmidwest.com/lmiga/showCamera.jsp?id=IL-IDOTD4-camera_528&direction=N",
    "name": "Bus-55 (Veteran's Parkway) at GE Way",
    "direction": "N",
    "latitude": 40.50249,
    "longitude": -88.95271,
    "imageUrl": "https://www.travelmidwest.com/lmiga/snapshot?id=IL-IDOTD4-camera_528&direction=N",
    "route": "Bus-55"
  },
  {
    "id": 105525052,
    "link": "https://www.travelmidwest.com/lmiga/showCamera.jsp?id=IL-IDOTD4-camera_530&direction=N",
    "name": "Bus-55 (Veteran's Parkway) at Fort Jesse",
    "direction": "N",
    "latitude": 40.51735,
    "longitude": -88.9532,
    "imageUrl": "https://www.travelmidwest.com/lmiga/snapshot?id=IL-IDOTD4-camera_530&direction=N",
    "route": "Bus-55"
  },
  {
    "id": 105525053,
    "link": "https://www.travelmidwest.com/lmiga/showCamera.jsp?id=IL-IDOTD4-camera_533&direction=S",
    "name": "US-45 at Windsor",
    "direction": "S",
    "latitude": 40.08379,
    "longitude": -88.24666,
    "imageUrl": "https://www.travelmidwest.com/lmiga/snapshot?id=IL-IDOTD4-camera_533&direction=S",
    "route": "US-45"
  },
  {
    "id": 105525054,
    "link": "https://www.travelmidwest.com/lmiga/showCamera.jsp?id=IL-IDOTD4-camera_532&direction=S",
    "name": "US-45 at Curtis",
    "direction": "S",
    "latitude": 40.06919,
    "longitude": -88.24896,
    "imageUrl": "https://www.travelmidwest.com/lmiga/snapshot?id=IL-IDOTD4-camera_532&direction=S",
    "route": "US-45"
  },
  {
    "id": 105525055,
    "link": "https://www.travelmidwest.com/lmiga/showCamera.jsp?id=IL-IDOT-IK28B",
    "name": "I-290/IL-53 south of IL-72 (Higgins Rd)",
    "direction": "NONE",
    "latitude": 42.03367,
    "longitude": -88.03147,
    "imageUrl": "https://www.travelmidwest.com/lmiga/snapshot?id=IL-IDOT-IK28B",
    "route": "I-290/IL-53"
  },
  {
    "id": 105525056,
    "link": "https://www.travelmidwest.com/lmiga/showCamera.jsp?id=IL-IDOTD4-camera_535&direction=N",
    "name": "US-45 (Neil-St.) at Green",
    "direction": "N",
    "latitude": 40.11007,
    "longitude": -88.24329,
    "imageUrl": "https://www.travelmidwest.com/lmiga/snapshot?id=IL-IDOTD4-camera_535&direction=N",
    "route": "US-45"
  },
  {
    "id": 105525057,
    "link": "https://www.travelmidwest.com/lmiga/showCamera.jsp?id=IL-IDOTD4-camera_537&direction=N",
    "name": "US-150 (Prospect) at University",
    "direction": "N",
    "latitude": 40.11614,
    "longitude": -88.25801,
    "imageUrl": "https://www.travelmidwest.com/lmiga/snapshot?id=IL-IDOTD4-camera_537&direction=N",
    "route": "US-150"
  },
  {
    "id": 105525058,
    "link": "https://www.travelmidwest.com/lmiga/showCamera.jsp?id=IL-IDOT-IK27",
    "name": "I-290/IL-53 north of Biesterfield Rd",
    "direction": "NONE",
    "latitude": 42.00853,
    "longitude": -88.02882,
    "imageUrl": "https://www.travelmidwest.com/lmiga/snapshot?id=IL-IDOT-IK27",
    "route": "I-290/IL-53"
  },
  {
    "id": 105525059,
    "link": "https://www.travelmidwest.com/lmiga/showCamera.jsp?id=IL-IDOTD4-camera_536&direction=W",
    "name": "US-150 (Prospect) at Springfield",
    "direction": "W",
    "latitude": 40.11253,
    "longitude": -88.25761,
    "imageUrl": "https://www.travelmidwest.com/lmiga/snapshot?id=IL-IDOTD4-camera_536&direction=W",
    "route": "US-150"
  },
  {
    "id": 105525060,
    "link": "https://www.travelmidwest.com/lmiga/showCamera.jsp?id=IL-IDOTD4-camera_539&direction=E",
    "name": "Mattis Ave. at Springfield",
    "direction": "E",
    "latitude": 40.11296,
    "longitude": -88.27709,
    "imageUrl": "https://www.travelmidwest.com/lmiga/snapshot?id=IL-IDOTD4-camera_539&direction=E",
    "route": "Mattis Ave"
  },
  {
    "id": 105525061,
    "link": "https://www.travelmidwest.com/lmiga/showCamera.jsp?id=IL-IDOT-IK26",
    "name": "I-290 south of Biesterfield Rd",
    "direction": "NONE",
    "latitude": 41.99768,
    "longitude": -88.02452,
    "imageUrl": "https://www.travelmidwest.com/lmiga/snapshot?id=IL-IDOT-IK26",
    "route": "I-290"
  },
  {
    "id": 105525062,
    "link": "https://www.travelmidwest.com/lmiga/showCamera.jsp?id=IL-IDOTD4-camera_538&direction=N",
    "name": "US-150 (Prospect) at Bradley",
    "direction": "N",
    "latitude": 40.12701,
    "longitude": -88.25815,
    "imageUrl": "https://www.travelmidwest.com/lmiga/snapshot?id=IL-IDOTD4-camera_538&direction=N",
    "route": "US-150"
  },
  {
    "id": 105525063,
    "link": "https://www.travelmidwest.com/lmiga/showCamera.jsp?id=IL-IDOT-IK26A",
    "name": "I-290 south of Biesterfield Rd",
    "direction": "NONE",
    "latitude": 42.00133,
    "longitude": -88.02647,
    "imageUrl": "https://www.travelmidwest.com/lmiga/snapshot?id=IL-IDOT-IK26A",
    "route": "I-290"
  },
  {
    "id": 105525064,
    "link": "https://www.travelmidwest.com/lmiga/showCamera.jsp?id=IL-IDOTD4-camera_540&direction=N",
    "name": "Mattis Ave. at Church",
    "direction": "N",
    "latitude": 40.11831,
    "longitude": -88.27712,
    "imageUrl": "https://www.travelmidwest.com/lmiga/snapshot?id=IL-IDOTD4-camera_540&direction=N",
    "route": "Mattis Ave"
  },
  {
    "id": 105525065,
    "link": "https://www.travelmidwest.com/lmiga/showCamera.jsp?id=IL-IDOT-IK25B",
    "name": "I-290 at Devon Ave",
    "direction": "NONE",
    "latitude": 41.99303,
    "longitude": -88.0233,
    "imageUrl": "https://www.travelmidwest.com/lmiga/snapshot?id=IL-IDOT-IK25B",
    "route": "I-290"
  },
  {
    "id": 105525066,
    "link": "https://www.travelmidwest.com/lmiga/showCamera.jsp?id=IL-IDOTD4-camera_550&direction=N",
    "name": "Vermillion at Fairchild",
    "direction": "N",
    "latitude": 40.13841,
    "longitude": -87.63035,
    "imageUrl": "https://www.travelmidwest.com/lmiga/snapshot?id=IL-IDOTD4-camera_550&direction=N",
    "route": "Vermillion"
  },
  {
    "id": 105525067,
    "link": "https://www.travelmidwest.com/lmiga/showCamera.jsp?id=IL-IDOTD4-camera_601&direction=N",
    "name": "I-72 at IL-4 (Veterans)",
    "direction": "N",
    "latitude": 39.74509,
    "longitude": -89.70605,
    "imageUrl": "https://www.travelmidwest.com/lmiga/snapshot?id=IL-IDOTD4-camera_601&direction=N",
    "route": "I-72"
  },
  {
    "id": 105525068,
    "link": "https://www.travelmidwest.com/lmiga/showCamera.jsp?id=IL-IDOTD4-camera_604&direction=N",
    "name": "I-72 at Sixth Street",
    "direction": "N",
    "latitude": 39.74279,
    "longitude": -89.64443,
    "imageUrl": "https://www.travelmidwest.com/lmiga/snapshot?id=IL-IDOTD4-camera_604&direction=N",
    "route": "I-72"
  },
  {
    "id": 105525069,
    "link": "https://www.travelmidwest.com/lmiga/showCamera.jsp?id=IL-IDOTD4-camera_543&direction=S",
    "name": "US-150 (Springfield) at Neil",
    "direction": "S",
    "latitude": 40.11268,
    "longitude": -88.24364,
    "imageUrl": "https://www.travelmidwest.com/lmiga/snapshot?id=IL-IDOTD4-camera_543&direction=S",
    "route": "US-150"
  },
  {
    "id": 105525070,
    "link": "https://www.travelmidwest.com/lmiga/showCamera.jsp?id=IL-IDOTD4-camera_545&direction=W",
    "name": "US-150 (University) at Lincoln",
    "direction": "W",
    "latitude": 40.11652,
    "longitude": -88.21923,
    "imageUrl": "https://www.travelmidwest.com/lmiga/snapshot?id=IL-IDOTD4-camera_545&direction=W",
    "route": "US-150"
  },
  {
    "id": 105525071,
    "link": "https://www.travelmidwest.com/lmiga/showCamera.jsp?id=IL-IDOTD4-camera_546&direction=W",
    "name": "US-150 (University) at Cunningham",
    "direction": "W",
    "latitude": 40.11617,
    "longitude": -88.20461,
    "imageUrl": "https://www.travelmidwest.com/lmiga/snapshot?id=IL-IDOTD4-camera_546&direction=W",
    "route": "US-150"
  },
  {
    "id": 105525072,
    "link": "https://www.travelmidwest.com/lmiga/showCamera.jsp?id=IL-IDOTD4-camera_548&direction=S",
    "name": "Gilbert at Main",
    "direction": "S",
    "latitude": 40.12431,
    "longitude": -87.63542,
    "imageUrl": "https://www.travelmidwest.com/lmiga/snapshot?id=IL-IDOTD4-camera_548&direction=S",
    "route": "Gilbert"
  },
  {
    "id": 105525073,
    "link": "https://www.travelmidwest.com/lmiga/showCamera.jsp?id=IL-IDOTD4-camera_606&direction=N",
    "name": "US-67 (Morton Ave.) at Lincoln Ave.",
    "direction": "N",
    "latitude": 39.72322,
    "longitude": -90.24807,
    "imageUrl": "https://www.travelmidwest.com/lmiga/snapshot?id=IL-IDOTD4-camera_606&direction=N",
    "route": "US-67"
  },
  {
    "id": 105525074,
    "link": "https://www.travelmidwest.com/lmiga/showCamera.jsp?id=IL-IDOTD4-camera_608&direction=N",
    "name": "US-67 (Main St.) at IL-104 (Morton Ave.)",
    "direction": "N",
    "latitude": 39.72323,
    "longitude": -90.2292,
    "imageUrl": "https://www.travelmidwest.com/lmiga/snapshot?id=IL-IDOTD4-camera_608&direction=N",
    "route": "US-67"
  },
  {
    "id": 105525075,
    "link": "https://www.travelmidwest.com/lmiga/showCamera.jsp?id=IL-IDOTD4-camera_607&direction=N",
    "name": "US-67 (Main St.) at Massey Ln.",
    "direction": "N",
    "latitude": 39.72307,
    "longitude": -90.26675,
    "imageUrl": "https://www.travelmidwest.com/lmiga/snapshot?id=IL-IDOTD4-camera_607&direction=N",
    "route": "US-67"
  },
  {
    "id": 105525076,
    "link": "https://www.travelmidwest.com/lmiga/showCamera.jsp?id=IL-IDOT-IK23A",
    "name": "I-290 at I-355",
    "direction": "NONE",
    "latitude": 41.95829,
    "longitude": -88.02557,
    "imageUrl": "https://www.travelmidwest.com/lmiga/snapshot?id=IL-IDOT-IK23A",
    "route": "I-290"
  },
  {
    "id": 105525077,
    "link": "https://www.travelmidwest.com/lmiga/showCamera.jsp?id=IL-IDOT-FS11A",
    "name": "I-57 at 167th St",
    "direction": "NONE",
    "latitude": 41.58772,
    "longitude": -87.72739,
    "imageUrl": "https://www.travelmidwest.com/lmiga/snapshot?id=IL-IDOT-FS11A",
    "route": "I-57"
  },
  {
    "id": 105525078,
    "link": "https://www.travelmidwest.com/lmiga/showCamera.jsp?id=IL-IDOT-FS12A",
    "name": "I-57 at IL-50 (Cicero Ave)",
    "direction": "NONE",
    "latitude": 41.58183,
    "longitude": -87.73511,
    "imageUrl": "https://www.travelmidwest.com/lmiga/snapshot?id=IL-IDOT-FS12A",
    "route": "I-57"
  },
  {
    "id": 105525079,
    "link": "https://www.travelmidwest.com/lmiga/showCamera.jsp?id=IL-IDOT-FS13",
    "name": "I-57 at I-80",
    "direction": "NONE",
    "latitude": 41.56933,
    "longitude": -87.74386,
    "imageUrl": "https://www.travelmidwest.com/lmiga/snapshot?id=IL-IDOT-FS13",
    "route": "I-57"
  },
  {
    "id": 105525080,
    "link": "https://www.travelmidwest.com/lmiga/showCamera.jsp?id=IL-IDOT-FS12B",
    "name": "I-57 at 173rd St",
    "direction": "NONE",
    "latitude": 41.57692,
    "longitude": -87.74058,
    "imageUrl": "https://www.travelmidwest.com/lmiga/snapshot?id=IL-IDOT-FS12B",
    "route": "I-57"
  },
  {
    "id": 105525081,
    "link": "https://www.travelmidwest.com/lmiga/showCamera.jsp?id=IL-ISTHA-cmjcoVDIjryZNPFmyRIgVu8hTTI=&direction=W",
    "name": "I-94 at Deerfield Road",
    "direction": "W",
    "latitude": 42.16299,
    "longitude": -87.87419,
    "imageUrl": "https://www.travelmidwest.com/lmiga/snapshot?id=IL-ISTHA-cmjcoVDIjryZNPFmyRIgVu8hTTI=&direction=W",
    "route": "I-94"
  },
  {
    "id": 105525082,
    "link": "https://www.travelmidwest.com/lmiga/showCamera.jsp?id=IL-ISTHA-cmjcoVDIjryZNPFmyRIgVu8hTTI=&direction=E",
    "name": "I-94 at Deerfield Road",
    "direction": "E",
    "latitude": 42.16299,
    "longitude": -87.87419,
    "imageUrl": "https://www.travelmidwest.com/lmiga/snapshot?id=IL-ISTHA-cmjcoVDIjryZNPFmyRIgVu8hTTI=&direction=E",
    "route": "I-94"
  },
  {
    "id": 105525083,
    "link": "https://www.travelmidwest.com/lmiga/showCamera.jsp?id=IL-LAKECOUNTY-cam172_30_91_65&direction=W",
    "name": "US-41 west ramp at Washington",
    "direction": "W",
    "latitude": 42.35959,
    "longitude": -87.8976,
    "imageUrl": "https://www.lakecountypassage.com/snapshots/US_41_west_ramp_@_Washington_cctv_West_Leg.jpg",
    "route": "US-41"
  },
  {
    "id": 105525084,
    "link": "https://www.travelmidwest.com/lmiga/showCamera.jsp?id=IL-LAKECOUNTY-cam172_30_91_65&direction=E",
    "name": "US-41 west ramp at Washington",
    "direction": "E",
    "latitude": 42.35959,
    "longitude": -87.8976,
    "imageUrl": "https://www.lakecountypassage.com/snapshots/US_41_west_ramp_@_Washington_cctv_East_Leg.jpg",
    "route": "US-41"
  },
  {
    "id": 105525085,
    "link": "https://www.travelmidwest.com/lmiga/showCamera.jsp?id=IL-LAKECOUNTY-cam172_30_91_65&direction=S",
    "name": "US-41 west ramp at Washington",
    "direction": "S",
    "latitude": 42.35959,
    "longitude": -87.8976,
    "imageUrl": "https://www.lakecountypassage.com/snapshots/US_41_west_ramp_@_Washington_cctv_South_Leg.jpg",
    "route": "US-41"
  },
  {
    "id": 105525086,
    "link": "https://www.travelmidwest.com/lmiga/showCamera.jsp?id=IL-LAKECOUNTY-cam172_30_91_65&direction=N",
    "name": "US-41 west ramp at Washington",
    "direction": "N",
    "latitude": 42.35959,
    "longitude": -87.8976,
    "imageUrl": "https://www.lakecountypassage.com/snapshots/US_41_west_ramp_@_Washington_cctv_North_Leg.jpg",
    "route": "US-41"
  },
  {
    "id": 105525087,
    "link": "https://www.travelmidwest.com/lmiga/showCamera.jsp?id=IL-IDOT-FS13A",
    "name": "I-57 at I-80",
    "direction": "NONE",
    "latitude": 41.568,
    "longitude": -87.743,
    "imageUrl": "https://www.travelmidwest.com/lmiga/snapshot?id=IL-IDOT-FS13A",
    "route": "I-57"
  },
  {
    "id": 105525088,
    "link": "https://www.travelmidwest.com/lmiga/showCamera.jsp?id=IL-LAKECOUNTY-cam172_30_45_129&direction=W",
    "name": "Washington at Tri State",
    "direction": "W",
    "latitude": 42.36379,
    "longitude": -87.9464,
    "imageUrl": "https://www.lakecountypassage.com/snapshots/Washington_@_Tri_State_cctv_West_Leg.jpg",
    "route": "Washington"
  },
  {
    "id": 105525089,
    "link": "https://www.travelmidwest.com/lmiga/showCamera.jsp?id=IL-LAKECOUNTY-cam172_30_45_129&direction=E",
    "name": "Washington at Tri State",
    "direction": "E",
    "latitude": 42.36379,
    "longitude": -87.9464,
    "imageUrl": "https://www.lakecountypassage.com/snapshots/Washington_@_Tri_State_cctv_East_Leg.jpg",
    "route": "Washington"
  },
  {
    "id": 105525090,
    "link": "https://www.travelmidwest.com/lmiga/showCamera.jsp?id=IL-LAKECOUNTY-cam172_30_45_129&direction=N",
    "name": "Washington at Tri State",
    "direction": "N",
    "latitude": 42.36379,
    "longitude": -87.9464,
    "imageUrl": "https://www.lakecountypassage.com/snapshots/Washington_@_Tri_State_cctv_North_Leg.jpg",
    "route": "Washington"
  },
  {
    "id": 105525091,
    "link": "https://www.travelmidwest.com/lmiga/showCamera.jsp?id=IL-LAKECOUNTY-1&direction=W",
    "name": "Washington at Six Flags",
    "direction": "W",
    "latitude": 42.36379,
    "longitude": -87.9335,
    "imageUrl": "https://www.lakecountypassage.com/snapshots/Washington_@_Six_Flags_cctv_West_Leg.jpg",
    "route": "Washington"
  },
  {
    "id": 105525092,
    "link": "https://www.travelmidwest.com/lmiga/showCamera.jsp?id=IL-LAKECOUNTY-1&direction=E",
    "name": "Washington at Six Flags",
    "direction": "E",
    "latitude": 42.36379,
    "longitude": -87.9335,
    "imageUrl": "https://www.lakecountypassage.com/snapshots/Washington_@_Six_Flags_cctv_East_Leg.jpg",
    "route": "Washington"
  },
  {
    "id": 105525093,
    "link": "https://www.travelmidwest.com/lmiga/showCamera.jsp?id=IL-LAKECOUNTY-cam172_30_44_33&direction=W",
    "name": "Almond at Washington",
    "direction": "W",
    "latitude": 42.36429,
    "longitude": -87.9786,
    "imageUrl": "https://www.lakecountypassage.com/snapshots/Almond_@_Washington_cctv_West_Leg.jpg",
    "route": "Almond"
  },
  {
    "id": 105525094,
    "link": "https://www.travelmidwest.com/lmiga/showCamera.jsp?id=IL-LAKECOUNTY-cam172_30_44_33&direction=E",
    "name": "Almond at Washington",
    "direction": "E",
    "latitude": 42.36429,
    "longitude": -87.9786,
    "imageUrl": "https://www.lakecountypassage.com/snapshots/Almond_@_Washington_cctv_East_Leg.jpg",
    "route": "Almond"
  },
  {
    "id": 105525095,
    "link": "https://www.travelmidwest.com/lmiga/showCamera.jsp?id=IL-LAKECOUNTY-cam172_30_44_33&direction=S",
    "name": "Almond at Washington",
    "direction": "S",
    "latitude": 42.36429,
    "longitude": -87.9786,
    "imageUrl": "https://www.lakecountypassage.com/snapshots/Almond_@_Washington_cctv_South_Leg.jpg",
    "route": "Almond"
  },
  {
    "id": 105525096,
    "link": "https://www.travelmidwest.com/lmiga/showCamera.jsp?id=IL-LAKECOUNTY-cam172_30_44_33&direction=N",
    "name": "Almond at Washington",
    "direction": "N",
    "latitude": 42.36429,
    "longitude": -87.9786,
    "imageUrl": "https://www.lakecountypassage.com/snapshots/Almond_@_Washington_cctv_North_Leg.jpg",
    "route": "Almond"
  },
  {
    "id": 105525097,
    "link": "https://www.travelmidwest.com/lmiga/showCamera.jsp?id=IL-LAKECOUNTY-cam172_30_91_193&direction=W",
    "name": "IL-21 at Washington",
    "direction": "W",
    "latitude": 42.36359,
    "longitude": -87.9298,
    "imageUrl": "https://www.lakecountypassage.com/snapshots/IL_21_@_Washington_cctv_West_Leg.jpg",
    "route": "IL-21"
  },
  {
    "id": 105525098,
    "link": "https://www.travelmidwest.com/lmiga/showCamera.jsp?id=IL-LAKECOUNTY-cam172_30_91_193&direction=E",
    "name": "IL-21 at Washington",
    "direction": "E",
    "latitude": 42.36359,
    "longitude": -87.9298,
    "imageUrl": "https://www.lakecountypassage.com/snapshots/IL_21_@_Washington_cctv_East_Leg.jpg",
    "route": "IL-21"
  },
  {
    "id": 105525099,
    "link": "https://www.travelmidwest.com/lmiga/showCamera.jsp?id=IL-LAKECOUNTY-cam172_30_91_193&direction=S",
    "name": "IL-21 at Washington",
    "direction": "S",
    "latitude": 42.36359,
    "longitude": -87.9298,
    "imageUrl": "https://www.lakecountypassage.com/snapshots/IL_21_@_Washington_cctv_South_Leg.jpg",
    "route": "IL-21"
  },
  {
    "id": 105525100,
    "link": "https://www.travelmidwest.com/lmiga/showCamera.jsp?id=IL-LAKECOUNTY-cam172_30_91_193&direction=N",
    "name": "IL-21 at Washington",
    "direction": "N",
    "latitude": 42.36359,
    "longitude": -87.9298,
    "imageUrl": "https://www.lakecountypassage.com/snapshots/IL_21_@_Washington_cctv_North_Leg.jpg",
    "route": "IL-21"
  },
  {
    "id": 105525101,
    "link": "https://www.travelmidwest.com/lmiga/showCamera.jsp?id=IL-LAKECOUNTY-cam172_30_88_33&direction=W",
    "name": "IL-131 at Washington",
    "direction": "W",
    "latitude": 42.35929,
    "longitude": -87.8742,
    "imageUrl": "https://www.lakecountypassage.com/snapshots/IL_131_@_Washington_cctv_West_Leg.jpg",
    "route": "IL-131"
  },
  {
    "id": 105525102,
    "link": "https://www.travelmidwest.com/lmiga/showCamera.jsp?id=IL-LAKECOUNTY-cam172_30_88_33&direction=E",
    "name": "IL-131 at Washington",
    "direction": "E",
    "latitude": 42.35929,
    "longitude": -87.8742,
    "imageUrl": "https://www.lakecountypassage.com/snapshots/IL_131_@_Washington_cctv_East_Leg.jpg",
    "route": "IL-131"
  },
  {
    "id": 105525103,
    "link": "https://www.travelmidwest.com/lmiga/showCamera.jsp?id=IL-LAKECOUNTY-cam172_30_88_33&direction=S",
    "name": "IL-131 at Washington",
    "direction": "S",
    "latitude": 42.35929,
    "longitude": -87.8742,
    "imageUrl": "https://www.lakecountypassage.com/snapshots/IL_131_@_Washington_cctv_South_Leg.jpg",
    "route": "IL-131"
  },
  {
    "id": 105525104,
    "link": "https://www.travelmidwest.com/lmiga/showCamera.jsp?id=IL-LAKECOUNTY-cam172_30_88_33&direction=N",
    "name": "IL-131 at Washington",
    "direction": "N",
    "latitude": 42.35929,
    "longitude": -87.8742,
    "imageUrl": "https://www.lakecountypassage.com/snapshots/IL_131_@_Washington_cctv_North_Leg.jpg",
    "route": "IL-131"
  },
  {
    "id": 105525105,
    "link": "https://www.travelmidwest.com/lmiga/showCamera.jsp?id=IL-LAKECOUNTY-cam172_30_91_129&direction=W",
    "name": "OPlaine at Washington",
    "direction": "W",
    "latitude": 42.36039,
    "longitude": -87.91449,
    "imageUrl": "https://www.lakecountypassage.com/snapshots/OPlaine_@_Washington_cctv_West_Leg.jpg",
    "route": "OPlaine"
  },
  {
    "id": 105525106,
    "link": "https://www.travelmidwest.com/lmiga/showCamera.jsp?id=IL-LAKECOUNTY-cam172_30_91_129&direction=E",
    "name": "OPlaine at Washington",
    "direction": "E",
    "latitude": 42.36039,
    "longitude": -87.91449,
    "imageUrl": "https://www.lakecountypassage.com/snapshots/OPlaine_@_Washington_cctv_East_Leg.jpg",
    "route": "OPlaine"
  },
  {
    "id": 105525107,
    "link": "https://www.travelmidwest.com/lmiga/showCamera.jsp?id=IL-LAKECOUNTY-cam172_30_91_129&direction=S",
    "name": "OPlaine at Washington",
    "direction": "S",
    "latitude": 42.36039,
    "longitude": -87.91449,
    "imageUrl": "https://www.lakecountypassage.com/snapshots/OPlaine_@_Washington_cctv_South_Leg.jpg",
    "route": "OPlaine"
  },
  {
    "id": 105525108,
    "link": "https://www.travelmidwest.com/lmiga/showCamera.jsp?id=IL-LAKECOUNTY-cam172_30_91_129&direction=N",
    "name": "OPlaine at Washington",
    "direction": "N",
    "latitude": 42.36039,
    "longitude": -87.91449,
    "imageUrl": "https://www.lakecountypassage.com/snapshots/OPlaine_@_Washington_cctv_North_Leg.jpg",
    "route": "OPlaine"
  },
  {
    "id": 105525109,
    "link": "https://www.travelmidwest.com/lmiga/showCamera.jsp?id=IL-IDOTD4-camera_558&direction=E",
    "name": "I-74 at IL-47",
    "direction": "E",
    "latitude": 40.19858,
    "longitude": -88.39718,
    "imageUrl": "https://www.travelmidwest.com/lmiga/snapshot?id=IL-IDOTD4-camera_558&direction=E",
    "route": "I-74"
  },
  {
    "id": 105525110,
    "link": "https://www.travelmidwest.com/lmiga/showCamera.jsp?id=IL-IDOTD4-camera_559&direction=S",
    "name": "I-57 at Mile Post 226.4",
    "direction": "S",
    "latitude": 39.99594,
    "longitude": -88.30348,
    "imageUrl": "https://www.travelmidwest.com/lmiga/snapshot?id=IL-IDOTD4-camera_559&direction=S",
    "route": "I-57"
  },
  {
    "id": 105525111,
    "link": "https://www.travelmidwest.com/lmiga/showCamera.jsp?id=IL-IDOTD4-camera_560&direction=S",
    "name": "I-57 at US-136",
    "direction": "S",
    "latitude": 40.30852,
    "longitude": -88.18373,
    "imageUrl": "https://www.travelmidwest.com/lmiga/snapshot?id=IL-IDOTD4-camera_560&direction=S",
    "route": "I-57"
  },
  {
    "id": 105525112,
    "link": "https://www.travelmidwest.com/lmiga/showCamera.jsp?id=IL-IDOTD4-camera_561&direction=W",
    "name": "US-45 at US-136",
    "direction": "W",
    "latitude": 40.3081,
    "longitude": -88.15559,
    "imageUrl": "https://www.travelmidwest.com/lmiga/snapshot?id=IL-IDOTD4-camera_561&direction=W",
    "route": "US-45"
  },
  {
    "id": 105525113,
    "link": "https://www.travelmidwest.com/lmiga/showCamera.jsp?id=IL-IDOTD4-camera_563&direction=S",
    "name": "US-45 at Chandler",
    "direction": "S",
    "latitude": 40.28289,
    "longitude": -88.17029,
    "imageUrl": "https://www.travelmidwest.com/lmiga/snapshot?id=IL-IDOTD4-camera_563&direction=S",
    "route": "US-45"
  },
  {
    "id": 105525114,
    "link": "https://www.travelmidwest.com/lmiga/showCamera.jsp?id=IL-IDOTD4-camera_554&direction=S",
    "name": "I-57 at US-36",
    "direction": "S",
    "latitude": 39.79132,
    "longitude": -88.26484,
    "imageUrl": "https://www.travelmidwest.com/lmiga/snapshot?id=IL-IDOTD4-camera_554&direction=S",
    "route": "I-57"
  },
  {
    "id": 105525115,
    "link": "https://www.travelmidwest.com/lmiga/showCamera.jsp?id=IL-IDOTD4-camera_556&direction=S",
    "name": "I-55/I-74 at Mile Post 158.4",
    "direction": "S",
    "latitude": 40.44029,
    "longitude": -89.01944,
    "imageUrl": "https://www.travelmidwest.com/lmiga/snapshot?id=IL-IDOTD4-camera_556&direction=S",
    "route": "I-55/I-74"
  },
  {
    "id": 105525116,
    "link": "https://www.travelmidwest.com/lmiga/showCamera.jsp?id=IL-ISTHA-ln8OBORCggkTSftbIuotrh/+two=&direction=S",
    "name": "I-294 at 55th St (Hinsdale Oasis)",
    "direction": "S",
    "latitude": 41.78889,
    "longitude": -87.9074,
    "imageUrl": "https://www.travelmidwest.com/lmiga/snapshot?id=IL-ISTHA-ln8OBORCggkTSftbIuotrh/+two=&direction=S",
    "route": "I-294"
  },
  {
    "id": 105525117,
    "link": "https://www.travelmidwest.com/lmiga/showCamera.jsp?id=IL-ISTHA-ln8OBORCggkTSftbIuotrh/+two=&direction=N",
    "name": "I-294 at 55th St (Hinsdale Oasis)",
    "direction": "N",
    "latitude": 41.78889,
    "longitude": -87.9074,
    "imageUrl": "https://www.travelmidwest.com/lmiga/snapshot?id=IL-ISTHA-ln8OBORCggkTSftbIuotrh/+two=&direction=N",
    "route": "I-294"
  },
  {
    "id": 105525118,
    "link": "https://www.travelmidwest.com/lmiga/showCamera.jsp?id=IL-IDOT-FS09",
    "name": "I-57 north of Kedzie Ave",
    "direction": "NONE",
    "latitude": 41.61336,
    "longitude": -87.69414,
    "imageUrl": "https://www.travelmidwest.com/lmiga/snapshot?id=IL-IDOT-FS09",
    "route": "I-57"
  },
  {
    "id": 105525119,
    "link": "https://www.travelmidwest.com/lmiga/showCamera.jsp?id=IL-IDOT-FS08B",
    "name": "I-57 at I-294",
    "direction": "NONE",
    "latitude": 41.61883,
    "longitude": -87.68669,
    "imageUrl": "https://www.travelmidwest.com/lmiga/snapshot?id=IL-IDOT-FS08B",
    "route": "I-57"
  },
  {
    "id": 105525120,
    "link": "https://www.travelmidwest.com/lmiga/showCamera.jsp?id=IL-ISTHA-2906&direction=S",
    "name": "NB Hinsdale O App",
    "direction": "S",
    "latitude": 41.78319,
    "longitude": -87.90769,
    "imageUrl": "https://www.travelmidwest.com/lmiga/snapshot?id=IL-ISTHA-2906&direction=S",
    "route": "NB"
  },
  {
    "id": 105525121,
    "link": "https://www.travelmidwest.com/lmiga/showCamera.jsp?id=IL-ISTHA-2906&direction=N",
    "name": "NB Hinsdale O App",
    "direction": "N",
    "latitude": 41.78319,
    "longitude": -87.90769,
    "imageUrl": "https://www.travelmidwest.com/lmiga/snapshot?id=IL-ISTHA-2906&direction=N",
    "route": "NB"
  },
  {
    "id": 105525122,
    "link": "https://www.travelmidwest.com/lmiga/showCamera.jsp?id=IL-IDOT-FS09A",
    "name": "I-57 at 155th St",
    "direction": "NONE",
    "latitude": 41.6085,
    "longitude": -87.70056,
    "imageUrl": "https://www.travelmidwest.com/lmiga/snapshot?id=IL-IDOT-FS09A",
    "route": "I-57"
  },
  {
    "id": 105525123,
    "link": "https://www.travelmidwest.com/lmiga/showCamera.jsp?id=IL-IDOT-FS11",
    "name": "I-57 south of Pulaski Rd/Crawford Ave",
    "direction": "NONE",
    "latitude": 41.59492,
    "longitude": -87.71797,
    "imageUrl": "https://www.travelmidwest.com/lmiga/snapshot?id=IL-IDOT-FS11",
    "route": "I-57"
  },
  {
    "id": 105525124,
    "link": "https://www.travelmidwest.com/lmiga/showCamera.jsp?id=IL-IDOT-FS10A",
    "name": "I-57 at US-6 (159th St)",
    "direction": "NONE",
    "latitude": 41.60022,
    "longitude": -87.71106,
    "imageUrl": "https://www.travelmidwest.com/lmiga/snapshot?id=IL-IDOT-FS10A",
    "route": "I-57"
  },
  {
    "id": 105525125,
    "link": "https://www.travelmidwest.com/lmiga/showCamera.jsp?id=IL-LAKECOUNTY-cam237_30_78_33&direction=E",
    "name": "IL-83 at Aptakisic",
    "direction": "E",
    "latitude": 42.18269,
    "longitude": -87.9895,
    "imageUrl": "https://www.lakecountypassage.com/snapshots/IL_83_@_Aptakisic_cctv_East_Leg.jpg",
    "route": "IL-83"
  },
  {
    "id": 105525126,
    "link": "https://www.travelmidwest.com/lmiga/showCamera.jsp?id=IL-LAKECOUNTY-cam237_30_78_33&direction=S",
    "name": "IL-83 at Aptakisic",
    "direction": "S",
    "latitude": 42.18269,
    "longitude": -87.9895,
    "imageUrl": "https://www.lakecountypassage.com/snapshots/IL_83_@_Aptakisic_cctv_South_Leg.jpg",
    "route": "IL-83"
  },
  {
    "id": 105525127,
    "link": "https://www.travelmidwest.com/lmiga/showCamera.jsp?id=IL-LAKECOUNTY-cam237_30_78_33&direction=N",
    "name": "IL-83 at Aptakisic",
    "direction": "N",
    "latitude": 42.18269,
    "longitude": -87.9895,
    "imageUrl": "https://www.lakecountypassage.com/snapshots/IL_83_@_Aptakisic_cctv_North_Leg.jpg",
    "route": "IL-83"
  },
  {
    "id": 105525128,
    "link": "https://www.travelmidwest.com/lmiga/showCamera.jsp?id=IL-LAKECOUNTY-cam237_30_76_97&direction=W",
    "name": "Diamond Lake at Gilmer",
    "direction": "W",
    "latitude": 42.21219,
    "longitude": -88.0043,
    "imageUrl": "https://www.lakecountypassage.com/snapshots/Diamond_Lake_@_Gilmer_cctv_West_Leg.jpg",
    "route": "Diamond Lake"
  },
  {
    "id": 105525129,
    "link": "https://www.travelmidwest.com/lmiga/showCamera.jsp?id=IL-LAKECOUNTY-cam237_30_76_97&direction=E",
    "name": "Diamond Lake at Gilmer",
    "direction": "E",
    "latitude": 42.21219,
    "longitude": -88.0043,
    "imageUrl": "https://www.lakecountypassage.com/snapshots/Diamond_Lake_@_Gilmer_cctv_East_Leg.jpg",
    "route": "Diamond Lake"
  },
  {
    "id": 105525130,
    "link": "https://www.travelmidwest.com/lmiga/showCamera.jsp?id=IL-LAKECOUNTY-cam237_30_76_97&direction=N",
    "name": "Diamond Lake at Gilmer",
    "direction": "N",
    "latitude": 42.21219,
    "longitude": -88.0043,
    "imageUrl": "https://www.lakecountypassage.com/snapshots/Diamond_Lake_@_Gilmer_cctv_North_Leg.jpg",
    "route": "Diamond Lake"
  },
  {
    "id": 105525131,
    "link": "https://www.travelmidwest.com/lmiga/showCamera.jsp?id=IL-LAKECOUNTY-cam172_30_201_33&direction=S",
    "name": "Cedar Lake at Amarias (Wireless)",
    "direction": "S",
    "latitude": 42.316,
    "longitude": -88.0987,
    "imageUrl": "https://www.lakecountypassage.com/snapshots/Cedar_Lake_@_Amarias_(Wireless)_cctv_South_Leg.jpg",
    "route": "Cedar Lake"
  },
  {
    "id": 105525132,
    "link": "https://www.travelmidwest.com/lmiga/showCamera.jsp?id=IL-LAKECOUNTY-cam172_30_201_33&direction=N",
    "name": "Cedar Lake at Amarias (Wireless)",
    "direction": "N",
    "latitude": 42.316,
    "longitude": -88.0987,
    "imageUrl": "https://www.lakecountypassage.com/snapshots/Cedar_Lake_@_Amarias_(Wireless)_cctv_North_Leg.jpg",
    "route": "Cedar Lake"
  },
  {
    "id": 105525133,
    "link": "https://www.travelmidwest.com/lmiga/showCamera.jsp?id=IL-LAKECOUNTY-cam172_30_49_65&direction=W",
    "name": "US-45 at IL-132",
    "direction": "W",
    "latitude": 42.38619,
    "longitude": -88.00409,
    "imageUrl": "https://www.lakecountypassage.com/snapshots/US_45_@_IL_132_cctv_West_Leg.jpg",
    "route": "US-45"
  },
  {
    "id": 105525134,
    "link": "https://www.travelmidwest.com/lmiga/showCamera.jsp?id=IL-LAKECOUNTY-cam172_30_49_65&direction=E",
    "name": "US-45 at IL-132",
    "direction": "E",
    "latitude": 42.38619,
    "longitude": -88.00409,
    "imageUrl": "https://www.lakecountypassage.com/snapshots/US_45_@_IL_132_cctv_East_Leg.jpg",
    "route": "US-45"
  },
  {
    "id": 105525135,
    "link": "https://www.travelmidwest.com/lmiga/showCamera.jsp?id=IL-LAKECOUNTY-cam172_30_49_65&direction=S",
    "name": "US-45 at IL-132",
    "direction": "S",
    "latitude": 42.38619,
    "longitude": -88.00409,
    "imageUrl": "https://www.lakecountypassage.com/snapshots/US_45_@_IL_132_cctv_South_Leg.jpg",
    "route": "US-45"
  },
  {
    "id": 105525136,
    "link": "https://www.travelmidwest.com/lmiga/showCamera.jsp?id=IL-LAKECOUNTY-cam172_30_49_65&direction=N",
    "name": "US-45 at IL-132",
    "direction": "N",
    "latitude": 42.38619,
    "longitude": -88.00409,
    "imageUrl": "https://www.lakecountypassage.com/snapshots/US_45_@_IL_132_cctv_North_Leg.jpg",
    "route": "US-45"
  },
  {
    "id": 105525137,
    "link": "https://www.travelmidwest.com/lmiga/showCamera.jsp?id=IL-LAKECOUNTY-cam172_30_108_65&direction=E",
    "name": "Lewis at Ballentine",
    "direction": "E",
    "latitude": 42.40069,
    "longitude": -87.8551,
    "imageUrl": "https://www.lakecountypassage.com/snapshots/Lewis_@_Ballentine_cctv_East_Leg.jpg",
    "route": "Lewis"
  },
  {
    "id": 105525138,
    "link": "https://www.travelmidwest.com/lmiga/showCamera.jsp?id=IL-LAKECOUNTY-cam172_30_108_65&direction=S",
    "name": "Lewis at Ballentine",
    "direction": "S",
    "latitude": 42.40069,
    "longitude": -87.8551,
    "imageUrl": "https://www.lakecountypassage.com/snapshots/Lewis_@_Ballentine_cctv_South_Leg.jpg",
    "route": "Lewis"
  },
  {
    "id": 105525139,
    "link": "https://www.travelmidwest.com/lmiga/showCamera.jsp?id=IL-LAKECOUNTY-cam172_30_108_65&direction=N",
    "name": "Lewis at Ballentine",
    "direction": "N",
    "latitude": 42.40069,
    "longitude": -87.8551,
    "imageUrl": "https://www.lakecountypassage.com/snapshots/Lewis_@_Ballentine_cctv_North_Leg.jpg",
    "route": "Lewis"
  },
  {
    "id": 105525140,
    "link": "https://www.travelmidwest.com/lmiga/showCamera.jsp?id=IL-LAKECOUNTY-cam172_30_109_33&direction=S",
    "name": "Lewis at Williamsburg",
    "direction": "S",
    "latitude": 42.38429,
    "longitude": -87.8554,
    "imageUrl": "https://www.lakecountypassage.com/snapshots/Lewis_@_Williamsburg_cctv_South_Leg.jpg",
    "route": "Lewis"
  },
  {
    "id": 105525141,
    "link": "https://www.travelmidwest.com/lmiga/showCamera.jsp?id=IL-LAKECOUNTY-cam172_30_109_33&direction=N",
    "name": "Lewis at Williamsburg",
    "direction": "N",
    "latitude": 42.38429,
    "longitude": -87.8554,
    "imageUrl": "https://www.lakecountypassage.com/snapshots/Lewis_@_Williamsburg_cctv_North_Leg.jpg",
    "route": "Lewis"
  },
  {
    "id": 105525142,
    "link": "https://www.travelmidwest.com/lmiga/showCamera.jsp?id=IL-LAKECOUNTY-cam172_30_89_97&direction=W",
    "name": "Washington at West",
    "direction": "W",
    "latitude": 42.35959,
    "longitude": -87.8354,
    "imageUrl": "https://www.lakecountypassage.com/snapshots/Washington_@_West_cctv_West_Leg.jpg",
    "route": "Washington"
  },
  {
    "id": 105525143,
    "link": "https://www.travelmidwest.com/lmiga/showCamera.jsp?id=IL-LAKECOUNTY-cam172_30_89_97&direction=E",
    "name": "Washington at West",
    "direction": "E",
    "latitude": 42.35959,
    "longitude": -87.8354,
    "imageUrl": "https://www.lakecountypassage.com/snapshots/Washington_@_West_cctv_East_Leg.jpg",
    "route": "Washington"
  },
  {
    "id": 105525144,
    "link": "https://www.travelmidwest.com/lmiga/showCamera.jsp?id=IL-LAKECOUNTY-407&direction=W",
    "name": "IL-83 at Hook",
    "direction": "W",
    "latitude": 42.38339,
    "longitude": -88.063,
    "imageUrl": "https://www.lakecountypassage.com/snapshots/IL_83_@_Hook_cctv_West_Leg.jpg",
    "route": "IL-83"
  },
  {
    "id": 105525145,
    "link": "https://www.travelmidwest.com/lmiga/showCamera.jsp?id=IL-LAKECOUNTY-407&direction=E",
    "name": "IL-83 at Hook",
    "direction": "E",
    "latitude": 42.38339,
    "longitude": -88.063,
    "imageUrl": "https://www.lakecountypassage.com/snapshots/IL_83_@_Hook_cctv_East_Leg.jpg",
    "route": "IL-83"
  },
  {
    "id": 105525146,
    "link": "https://www.travelmidwest.com/lmiga/showCamera.jsp?id=IL-LAKECOUNTY-407&direction=S",
    "name": "IL-83 at Hook",
    "direction": "S",
    "latitude": 42.38339,
    "longitude": -88.063,
    "imageUrl": "https://www.lakecountypassage.com/snapshots/IL_83_@_Hook_cctv_South_Leg.jpg",
    "route": "IL-83"
  },
  {
    "id": 105525147,
    "link": "https://www.travelmidwest.com/lmiga/showCamera.jsp?id=IL-LAKECOUNTY-407&direction=N",
    "name": "IL-83 at Hook",
    "direction": "N",
    "latitude": 42.38339,
    "longitude": -88.063,
    "imageUrl": "https://www.lakecountypassage.com/snapshots/IL_83_@_Hook_cctv_North_Leg.jpg",
    "route": "IL-83"
  },
  {
    "id": 105525148,
    "link": "https://www.travelmidwest.com/lmiga/showCamera.jsp?id=IL-LAKECOUNTY-cam172_30_110_33&direction=S",
    "name": "Lewis at Ridgeland",
    "direction": "S",
    "latitude": 42.37449,
    "longitude": -87.8556,
    "imageUrl": "https://www.lakecountypassage.com/snapshots/Lewis_@_Ridgeland_cctv_South_Leg.jpg",
    "route": "Lewis"
  },
  {
    "id": 105525149,
    "link": "https://www.travelmidwest.com/lmiga/showCamera.jsp?id=IL-LAKECOUNTY-cam172_30_110_33&direction=N",
    "name": "Lewis at Ridgeland",
    "direction": "N",
    "latitude": 42.37449,
    "longitude": -87.8556,
    "imageUrl": "https://www.lakecountypassage.com/snapshots/Lewis_@_Ridgeland_cctv_North_Leg.jpg",
    "route": "Lewis"
  },
  {
    "id": 105525150,
    "link": "https://www.travelmidwest.com/lmiga/showCamera.jsp?id=IL-LAKECOUNTY-3366&direction=W",
    "name": "Deerfield at Robert York",
    "direction": "W",
    "latitude": 42.1673,
    "longitude": -87.8485,
    "imageUrl": "https://www.lakecountypassage.com/snapshots/Deerfield_@_Robert_York_cctv_West_Leg.jpg",
    "route": "Deerfield"
  },
  {
    "id": 105525151,
    "link": "https://www.travelmidwest.com/lmiga/showCamera.jsp?id=IL-LAKECOUNTY-3366&direction=E",
    "name": "Deerfield at Robert York",
    "direction": "E",
    "latitude": 42.1673,
    "longitude": -87.8485,
    "imageUrl": "https://www.lakecountypassage.com/snapshots/Deerfield_@_Robert_York_cctv_East_Leg.jpg",
    "route": "Deerfield"
  },
  {
    "id": 105525152,
    "link": "https://www.travelmidwest.com/lmiga/showCamera.jsp?id=IL-LAKECOUNTY-3366&direction=S",
    "name": "Deerfield at Robert York",
    "direction": "S",
    "latitude": 42.1673,
    "longitude": -87.8485,
    "imageUrl": "https://www.lakecountypassage.com/snapshots/Deerfield_@_Robert_York_cctv_South_Leg.jpg",
    "route": "Deerfield"
  },
  {
    "id": 105525153,
    "link": "https://www.travelmidwest.com/lmiga/showCamera.jsp?id=IL-LAKECOUNTY-3366&direction=N",
    "name": "Deerfield at Robert York",
    "direction": "N",
    "latitude": 42.1673,
    "longitude": -87.8485,
    "imageUrl": "https://www.lakecountypassage.com/snapshots/Deerfield_@_Robert_York_cctv_North_Leg.jpg",
    "route": "Deerfield"
  },
  {
    "id": 105525154,
    "link": "https://www.travelmidwest.com/lmiga/showCamera.jsp?id=IL-LAKECOUNTY-3367&direction=W",
    "name": "Deerfield at Chestnut",
    "direction": "W",
    "latitude": 42.1673,
    "longitude": -87.8507,
    "imageUrl": "https://www.lakecountypassage.com/snapshots/Deerfield_@_Chestnut_cctv_West_Leg.jpg",
    "route": "Deerfield"
  },
  {
    "id": 105525155,
    "link": "https://www.travelmidwest.com/lmiga/showCamera.jsp?id=IL-LAKECOUNTY-3367&direction=E",
    "name": "Deerfield at Chestnut",
    "direction": "E",
    "latitude": 42.1673,
    "longitude": -87.8507,
    "imageUrl": "https://www.lakecountypassage.com/snapshots/Deerfield_@_Chestnut_cctv_East_Leg.jpg",
    "route": "Deerfield"
  },
  {
    "id": 105525156,
    "link": "https://www.travelmidwest.com/lmiga/showCamera.jsp?id=IL-LAKECOUNTY-cam172_30_59_97&direction=W",
    "name": "Deerfield at Saunders",
    "direction": "W",
    "latitude": 42.16749,
    "longitude": -87.88279,
    "imageUrl": "https://www.lakecountypassage.com/snapshots/Deerfield_@_Saunders_cctv_West_Leg.jpg",
    "route": "Deerfield"
  },
  {
    "id": 105525157,
    "link": "https://www.travelmidwest.com/lmiga/showCamera.jsp?id=IL-LAKECOUNTY-cam172_30_59_97&direction=E",
    "name": "Deerfield at Saunders",
    "direction": "E",
    "latitude": 42.16749,
    "longitude": -87.88279,
    "imageUrl": "https://www.lakecountypassage.com/snapshots/Deerfield_@_Saunders_cctv_East_Leg.jpg",
    "route": "Deerfield"
  },
  {
    "id": 105525158,
    "link": "https://www.travelmidwest.com/lmiga/showCamera.jsp?id=IL-LAKECOUNTY-cam172_30_59_97&direction=S",
    "name": "Deerfield at Saunders",
    "direction": "S",
    "latitude": 42.16749,
    "longitude": -87.88279,
    "imageUrl": "https://www.lakecountypassage.com/snapshots/Deerfield_@_Saunders_cctv_South_Leg.jpg",
    "route": "Deerfield"
  },
  {
    "id": 105525159,
    "link": "https://www.travelmidwest.com/lmiga/showCamera.jsp?id=IL-LAKECOUNTY-cam172_30_59_97&direction=N",
    "name": "Deerfield at Saunders",
    "direction": "N",
    "latitude": 42.16749,
    "longitude": -87.88279,
    "imageUrl": "https://www.lakecountypassage.com/snapshots/Deerfield_@_Saunders_cctv_North_Leg.jpg",
    "route": "Deerfield"
  },
  {
    "id": 105525160,
    "link": "https://www.travelmidwest.com/lmiga/showCamera.jsp?id=IL-LAKECOUNTY-759&direction=W",
    "name": "US-45 at Gages Lake",
    "direction": "W",
    "latitude": 42.35689,
    "longitude": -88.00229,
    "imageUrl": "https://www.lakecountypassage.com/snapshots/US_45_@_Gages_Lake_cctv_West_Leg.jpg",
    "route": "US-45"
  },
  {
    "id": 105525161,
    "link": "https://www.travelmidwest.com/lmiga/showCamera.jsp?id=IL-LAKECOUNTY-759&direction=E",
    "name": "US-45 at Gages Lake",
    "direction": "E",
    "latitude": 42.35689,
    "longitude": -88.00229,
    "imageUrl": "https://www.lakecountypassage.com/snapshots/US_45_@_Gages_Lake_cctv_East_Leg.jpg",
    "route": "US-45"
  },
  {
    "id": 105525162,
    "link": "https://www.travelmidwest.com/lmiga/showCamera.jsp?id=IL-LAKECOUNTY-759&direction=S",
    "name": "US-45 at Gages Lake",
    "direction": "S",
    "latitude": 42.35689,
    "longitude": -88.00229,
    "imageUrl": "https://www.lakecountypassage.com/snapshots/US_45_@_Gages_Lake_cctv_South_Leg.jpg",
    "route": "US-45"
  },
  {
    "id": 105525163,
    "link": "https://www.travelmidwest.com/lmiga/showCamera.jsp?id=IL-LAKECOUNTY-759&direction=N",
    "name": "US-45 at Gages Lake",
    "direction": "N",
    "latitude": 42.35689,
    "longitude": -88.00229,
    "imageUrl": "https://www.lakecountypassage.com/snapshots/US_45_@_Gages_Lake_cctv_North_Leg.jpg",
    "route": "US-45"
  },
  {
    "id": 105525164,
    "link": "https://www.travelmidwest.com/lmiga/showCamera.jsp?id=IL-LAKECOUNTY-31296&direction=E",
    "name": "US-45 at Allanson",
    "direction": "E",
    "latitude": 42.25509,
    "longitude": -88.0014,
    "imageUrl": "https://www.lakecountypassage.com/snapshots/US_45_@_Allanson_cctv_East_Leg.jpg",
    "route": "US-45"
  },
  {
    "id": 105525165,
    "link": "https://www.travelmidwest.com/lmiga/showCamera.jsp?id=IL-LAKECOUNTY-31296&direction=S",
    "name": "US-45 at Allanson",
    "direction": "S",
    "latitude": 42.25509,
    "longitude": -88.0014,
    "imageUrl": "https://www.lakecountypassage.com/snapshots/US_45_@_Allanson_cctv_South_Leg.jpg",
    "route": "US-45"
  },
  {
    "id": 105525166,
    "link": "https://www.travelmidwest.com/lmiga/showCamera.jsp?id=IL-LAKECOUNTY-31296&direction=N",
    "name": "US-45 at Allanson",
    "direction": "N",
    "latitude": 42.25509,
    "longitude": -88.0014,
    "imageUrl": "https://www.lakecountypassage.com/snapshots/US_45_@_Allanson_cctv_North_Leg.jpg",
    "route": "US-45"
  },
  {
    "id": 105525167,
    "link": "https://www.travelmidwest.com/lmiga/showCamera.jsp?id=IL-LAKECOUNTY-410&direction=W",
    "name": "IL-83 at Rollins",
    "direction": "W",
    "latitude": 42.37979,
    "longitude": -88.06269,
    "imageUrl": "https://www.lakecountypassage.com/snapshots/IL_83_@_Rollins_cctv_West_Leg.jpg",
    "route": "IL-83"
  },
  {
    "id": 105525168,
    "link": "https://www.travelmidwest.com/lmiga/showCamera.jsp?id=IL-LAKECOUNTY-410&direction=E",
    "name": "IL-83 at Rollins",
    "direction": "E",
    "latitude": 42.37979,
    "longitude": -88.06269,
    "imageUrl": "https://www.lakecountypassage.com/snapshots/IL_83_@_Rollins_cctv_East_Leg.jpg",
    "route": "IL-83"
  },
  {
    "id": 105525169,
    "link": "https://www.travelmidwest.com/lmiga/showCamera.jsp?id=IL-LAKECOUNTY-410&direction=S",
    "name": "IL-83 at Rollins",
    "direction": "S",
    "latitude": 42.37979,
    "longitude": -88.06269,
    "imageUrl": "https://www.lakecountypassage.com/snapshots/IL_83_@_Rollins_cctv_South_Leg.jpg",
    "route": "IL-83"
  },
  {
    "id": 105525170,
    "link": "https://www.travelmidwest.com/lmiga/showCamera.jsp?id=IL-LAKECOUNTY-410&direction=N",
    "name": "IL-83 at Rollins",
    "direction": "N",
    "latitude": 42.37979,
    "longitude": -88.06269,
    "imageUrl": "https://www.lakecountypassage.com/snapshots/IL_83_@_Rollins_cctv_North_Leg.jpg",
    "route": "IL-83"
  },
  {
    "id": 105525171,
    "link": "https://www.travelmidwest.com/lmiga/showCamera.jsp?id=IL-LAKECOUNTY-cam172_30_51_33&direction=W",
    "name": "Rollins at Hook",
    "direction": "W",
    "latitude": 42.38219,
    "longitude": -88.05549,
    "imageUrl": "https://www.lakecountypassage.com/snapshots/Rollins_@_Hook_cctv_West_Leg.jpg",
    "route": "Rollins"
  },
  {
    "id": 105525172,
    "link": "https://www.travelmidwest.com/lmiga/showCamera.jsp?id=IL-LAKECOUNTY-cam172_30_51_33&direction=E",
    "name": "Rollins at Hook",
    "direction": "E",
    "latitude": 42.38219,
    "longitude": -88.05549,
    "imageUrl": "https://www.lakecountypassage.com/snapshots/Rollins_@_Hook_cctv_East_Leg.jpg",
    "route": "Rollins"
  },
  {
    "id": 105525173,
    "link": "https://www.travelmidwest.com/lmiga/showCamera.jsp?id=IL-LAKECOUNTY-21244&direction=E",
    "name": "Kelsey at River (Cell)",
    "direction": "E",
    "latitude": 42.21489,
    "longitude": -88.1694,
    "imageUrl": "https://www.lakecountypassage.com/snapshots/Kelsey_@_River_(Cell)_cctv_East_Leg.jpg",
    "route": "Kelsey"
  },
  {
    "id": 105525174,
    "link": "https://www.travelmidwest.com/lmiga/showCamera.jsp?id=IL-LAKECOUNTY-21244&direction=S",
    "name": "Kelsey at River (Cell)",
    "direction": "S",
    "latitude": 42.21489,
    "longitude": -88.1694,
    "imageUrl": "https://www.lakecountypassage.com/snapshots/Kelsey_@_River_(Cell)_cctv_South_Leg.jpg",
    "route": "Kelsey"
  },
  {
    "id": 105525175,
    "link": "https://www.travelmidwest.com/lmiga/showCamera.jsp?id=IL-LAKECOUNTY-21244&direction=N",
    "name": "Kelsey at River (Cell)",
    "direction": "N",
    "latitude": 42.21489,
    "longitude": -88.1694,
    "imageUrl": "https://www.lakecountypassage.com/snapshots/Kelsey_@_River_(Cell)_cctv_North_Leg.jpg",
    "route": "Kelsey"
  },
  {
    "id": 105525176,
    "link": "https://www.travelmidwest.com/lmiga/showCamera.jsp?id=IL-LAKECOUNTY-cam172_30_38_65&direction=W",
    "name": "Sunset at Northwestern",
    "direction": "W",
    "latitude": 42.3925,
    "longitude": -87.8945,
    "imageUrl": "https://www.lakecountypassage.com/snapshots/Sunset_@_Northwestern_cctv_West_Leg.jpg",
    "route": "Sunset"
  },
  {
    "id": 105525177,
    "link": "https://www.travelmidwest.com/lmiga/showCamera.jsp?id=IL-LAKECOUNTY-cam172_30_38_65&direction=E",
    "name": "Sunset at Northwestern",
    "direction": "E",
    "latitude": 42.3925,
    "longitude": -87.8945,
    "imageUrl": "https://www.lakecountypassage.com/snapshots/Sunset_@_Northwestern_cctv_East_Leg.jpg",
    "route": "Sunset"
  },
  {
    "id": 105525178,
    "link": "https://www.travelmidwest.com/lmiga/showCamera.jsp?id=IL-LAKECOUNTY-cam172_30_38_65&direction=S",
    "name": "Sunset at Northwestern",
    "direction": "S",
    "latitude": 42.3925,
    "longitude": -87.8945,
    "imageUrl": "https://www.lakecountypassage.com/snapshots/Sunset_@_Northwestern_cctv_South_Leg.jpg",
    "route": "Sunset"
  },
  {
    "id": 105525179,
    "link": "https://www.travelmidwest.com/lmiga/showCamera.jsp?id=IL-LAKECOUNTY-cam172_30_37_97&direction=W",
    "name": "IL-132 at OPlaine",
    "direction": "W",
    "latitude": 42.36959,
    "longitude": -87.91459,
    "imageUrl": "https://www.lakecountypassage.com/snapshots/IL_132_@_OPlaine_cctv_West_Leg.jpg",
    "route": "IL-132"
  },
  {
    "id": 105525180,
    "link": "https://www.travelmidwest.com/lmiga/showCamera.jsp?id=IL-LAKECOUNTY-cam172_30_37_97&direction=E",
    "name": "IL-132 at OPlaine",
    "direction": "E",
    "latitude": 42.36959,
    "longitude": -87.91459,
    "imageUrl": "https://www.lakecountypassage.com/snapshots/IL_132_@_OPlaine_cctv_East_Leg.jpg",
    "route": "IL-132"
  },
  {
    "id": 105525181,
    "link": "https://www.travelmidwest.com/lmiga/showCamera.jsp?id=IL-LAKECOUNTY-cam172_30_37_97&direction=S",
    "name": "IL-132 at OPlaine",
    "direction": "S",
    "latitude": 42.36959,
    "longitude": -87.91459,
    "imageUrl": "https://www.lakecountypassage.com/snapshots/IL_132_@_OPlaine_cctv_South_Leg.jpg",
    "route": "IL-132"
  },
  {
    "id": 105525182,
    "link": "https://www.travelmidwest.com/lmiga/showCamera.jsp?id=IL-LAKECOUNTY-cam172_30_37_97&direction=N",
    "name": "IL-132 at OPlaine",
    "direction": "N",
    "latitude": 42.36959,
    "longitude": -87.91459,
    "imageUrl": "https://www.lakecountypassage.com/snapshots/IL_132_@_OPlaine_cctv_North_Leg.jpg",
    "route": "IL-132"
  },
  {
    "id": 105525183,
    "link": "https://www.travelmidwest.com/lmiga/showCamera.jsp?id=IL-LAKECOUNTY-cam172_30_84_65&direction=W",
    "name": "US-45 at Peterson",
    "direction": "W",
    "latitude": 42.30599,
    "longitude": -88.0043,
    "imageUrl": "https://www.lakecountypassage.com/snapshots/US_45_@_Peterson_cctv_West_Leg.jpg",
    "route": "US-45"
  },
  {
    "id": 105525184,
    "link": "https://www.travelmidwest.com/lmiga/showCamera.jsp?id=IL-LAKECOUNTY-cam172_30_84_65&direction=E",
    "name": "US-45 at Peterson",
    "direction": "E",
    "latitude": 42.30599,
    "longitude": -88.0043,
    "imageUrl": "https://www.lakecountypassage.com/snapshots/US_45_@_Peterson_cctv_East_Leg.jpg",
    "route": "US-45"
  },
  {
    "id": 105525185,
    "link": "https://www.travelmidwest.com/lmiga/showCamera.jsp?id=IL-LAKECOUNTY-cam172_30_84_65&direction=S",
    "name": "US-45 at Peterson",
    "direction": "S",
    "latitude": 42.30599,
    "longitude": -88.0043,
    "imageUrl": "https://www.lakecountypassage.com/snapshots/US_45_@_Peterson_cctv_South_Leg.jpg",
    "route": "US-45"
  },
  {
    "id": 105525186,
    "link": "https://www.travelmidwest.com/lmiga/showCamera.jsp?id=IL-LAKECOUNTY-cam172_30_84_65&direction=N",
    "name": "US-45 at Peterson",
    "direction": "N",
    "latitude": 42.30599,
    "longitude": -88.0043,
    "imageUrl": "https://www.lakecountypassage.com/snapshots/US_45_@_Peterson_cctv_North_Leg.jpg",
    "route": "US-45"
  },
  {
    "id": 105525187,
    "link": "https://www.travelmidwest.com/lmiga/showCamera.jsp?id=IL-LAKECOUNTY-cam172_30_85_33&direction=W",
    "name": "Butterfield at Winchester",
    "direction": "W",
    "latitude": 42.29519,
    "longitude": -87.98359,
    "imageUrl": "https://www.lakecountypassage.com/snapshots/Butterfield_@_Winchester_cctv_West_Leg.jpg",
    "route": "Butterfield"
  },
  {
    "id": 105525188,
    "link": "https://www.travelmidwest.com/lmiga/showCamera.jsp?id=IL-LAKECOUNTY-cam172_30_85_33&direction=E",
    "name": "Butterfield at Winchester",
    "direction": "E",
    "latitude": 42.29519,
    "longitude": -87.98359,
    "imageUrl": "https://www.lakecountypassage.com/snapshots/Butterfield_@_Winchester_cctv_East_Leg.jpg",
    "route": "Butterfield"
  },
  {
    "id": 105525189,
    "link": "https://www.travelmidwest.com/lmiga/showCamera.jsp?id=IL-LAKECOUNTY-cam172_30_85_33&direction=S",
    "name": "Butterfield at Winchester",
    "direction": "S",
    "latitude": 42.29519,
    "longitude": -87.98359,
    "imageUrl": "https://www.lakecountypassage.com/snapshots/Butterfield_@_Winchester_cctv_South_Leg.jpg",
    "route": "Butterfield"
  },
  {
    "id": 105525190,
    "link": "https://www.travelmidwest.com/lmiga/showCamera.jsp?id=IL-LAKECOUNTY-cam172_30_85_33&direction=N",
    "name": "Butterfield at Winchester",
    "direction": "N",
    "latitude": 42.29519,
    "longitude": -87.98359,
    "imageUrl": "https://www.lakecountypassage.com/snapshots/Butterfield_@_Winchester_cctv_North_Leg.jpg",
    "route": "Butterfield"
  },
  {
    "id": 105525191,
    "link": "https://www.travelmidwest.com/lmiga/showCamera.jsp?id=IL-LAKECOUNTY-12413&direction=W",
    "name": "IL-120 at Atkinson",
    "direction": "W",
    "latitude": 42.3375,
    "longitude": -88.0241,
    "imageUrl": "https://www.lakecountypassage.com/snapshots/IL_120_@_Atkinson_cctv_West_Leg.jpg",
    "route": "IL-120"
  },
  {
    "id": 105525192,
    "link": "https://www.travelmidwest.com/lmiga/showCamera.jsp?id=IL-LAKECOUNTY-12413&direction=E",
    "name": "IL-120 at Atkinson",
    "direction": "E",
    "latitude": 42.3375,
    "longitude": -88.0241,
    "imageUrl": "https://www.lakecountypassage.com/snapshots/IL_120_@_Atkinson_cctv_East_Leg.jpg",
    "route": "IL-120"
  },
  {
    "id": 105525193,
    "link": "https://www.travelmidwest.com/lmiga/showCamera.jsp?id=IL-LAKECOUNTY-12413&direction=S",
    "name": "IL-120 at Atkinson",
    "direction": "S",
    "latitude": 42.3375,
    "longitude": -88.0241,
    "imageUrl": "https://www.lakecountypassage.com/snapshots/IL_120_@_Atkinson_cctv_South_Leg.jpg",
    "route": "IL-120"
  },
  {
    "id": 105525194,
    "link": "https://www.travelmidwest.com/lmiga/showCamera.jsp?id=IL-LAKECOUNTY-12413&direction=N",
    "name": "IL-120 at Atkinson",
    "direction": "N",
    "latitude": 42.3375,
    "longitude": -88.0241,
    "imageUrl": "https://www.lakecountypassage.com/snapshots/IL_120_@_Atkinson_cctv_North_Leg.jpg",
    "route": "IL-120"
  },
  {
    "id": 105525195,
    "link": "https://www.travelmidwest.com/lmiga/showCamera.jsp?id=IL-LAKECOUNTY-12412&direction=W",
    "name": "IL-83 at IL-120",
    "direction": "W",
    "latitude": 42.33659,
    "longitude": -88.0319,
    "imageUrl": "https://www.lakecountypassage.com/snapshots/IL_83_@_IL_120_cctv_West_Leg.jpg",
    "route": "IL-83"
  },
  {
    "id": 105525196,
    "link": "https://www.travelmidwest.com/lmiga/showCamera.jsp?id=IL-LAKECOUNTY-12412&direction=E",
    "name": "IL-83 at IL-120",
    "direction": "E",
    "latitude": 42.33659,
    "longitude": -88.0319,
    "imageUrl": "https://www.lakecountypassage.com/snapshots/IL_83_@_IL_120_cctv_East_Leg.jpg",
    "route": "IL-83"
  },
  {
    "id": 105525197,
    "link": "https://www.travelmidwest.com/lmiga/showCamera.jsp?id=IL-LAKECOUNTY-12412&direction=S",
    "name": "IL-83 at IL-120",
    "direction": "S",
    "latitude": 42.33659,
    "longitude": -88.0319,
    "imageUrl": "https://www.lakecountypassage.com/snapshots/IL_83_@_IL_120_cctv_South_Leg.jpg",
    "route": "IL-83"
  },
  {
    "id": 105525198,
    "link": "https://www.travelmidwest.com/lmiga/showCamera.jsp?id=IL-LAKECOUNTY-12412&direction=N",
    "name": "IL-83 at IL-120",
    "direction": "N",
    "latitude": 42.33659,
    "longitude": -88.0319,
    "imageUrl": "https://www.lakecountypassage.com/snapshots/IL_83_@_IL_120_cctv_North_Leg.jpg",
    "route": "IL-83"
  },
  {
    "id": 105525199,
    "link": "https://www.travelmidwest.com/lmiga/showCamera.jsp?id=IL-LAKECOUNTY-cam172_30_84_33&direction=W",
    "name": "US-45 at Winchester",
    "direction": "W",
    "latitude": 42.29769,
    "longitude": -88.0042,
    "imageUrl": "https://www.lakecountypassage.com/snapshots/US_45_@_Winchester_cctv_West_Leg.jpg",
    "route": "US-45"
  },
  {
    "id": 105525200,
    "link": "https://www.travelmidwest.com/lmiga/showCamera.jsp?id=IL-LAKECOUNTY-cam172_30_84_33&direction=E",
    "name": "US-45 at Winchester",
    "direction": "E",
    "latitude": 42.29769,
    "longitude": -88.0042,
    "imageUrl": "https://www.lakecountypassage.com/snapshots/US_45_@_Winchester_cctv_East_Leg.jpg",
    "route": "US-45"
  },
  {
    "id": 105525201,
    "link": "https://www.travelmidwest.com/lmiga/showCamera.jsp?id=IL-LAKECOUNTY-cam172_30_84_33&direction=S",
    "name": "US-45 at Winchester",
    "direction": "S",
    "latitude": 42.29769,
    "longitude": -88.0042,
    "imageUrl": "https://www.lakecountypassage.com/snapshots/US_45_@_Winchester_cctv_South_Leg.jpg",
    "route": "US-45"
  },
  {
    "id": 105525202,
    "link": "https://www.travelmidwest.com/lmiga/showCamera.jsp?id=IL-LAKECOUNTY-cam172_30_84_33&direction=N",
    "name": "US-45 at Winchester",
    "direction": "N",
    "latitude": 42.29769,
    "longitude": -88.0042,
    "imageUrl": "https://www.lakecountypassage.com/snapshots/US_45_@_Winchester_cctv_North_Leg.jpg",
    "route": "US-45"
  },
  {
    "id": 105525203,
    "link": "https://www.travelmidwest.com/lmiga/showCamera.jsp?id=IL-LAKECOUNTY-659&direction=W",
    "name": "IL-21 at Casey",
    "direction": "W",
    "latitude": 42.3204,
    "longitude": -87.9607,
    "imageUrl": "https://www.lakecountypassage.com/snapshots/IL_21_@_Casey_cctv_West_Leg.jpg",
    "route": "IL-21"
  },
  {
    "id": 105525204,
    "link": "https://www.travelmidwest.com/lmiga/showCamera.jsp?id=IL-LAKECOUNTY-659&direction=S",
    "name": "IL-21 at Casey",
    "direction": "S",
    "latitude": 42.3204,
    "longitude": -87.9607,
    "imageUrl": "https://www.lakecountypassage.com/snapshots/IL_21_@_Casey_cctv_South_Leg.jpg",
    "route": "IL-21"
  },
  {
    "id": 105525205,
    "link": "https://www.travelmidwest.com/lmiga/showCamera.jsp?id=IL-LAKECOUNTY-659&direction=N",
    "name": "IL-21 at Casey",
    "direction": "N",
    "latitude": 42.3204,
    "longitude": -87.9607,
    "imageUrl": "https://www.lakecountypassage.com/snapshots/IL_21_@_Casey_cctv_North_Leg.jpg",
    "route": "IL-21"
  },
  {
    "id": 105525206,
    "link": "https://www.travelmidwest.com/lmiga/showCamera.jsp?id=IL-LAKECOUNTY-658&direction=S",
    "name": "Cedar Lake at Monaville (Cellular)",
    "direction": "S",
    "latitude": 42.39799,
    "longitude": -88.0921,
    "imageUrl": "https://www.lakecountypassage.com/snapshots/Cedar_Lake_@_Monaville_(Cellular)_cctv_South_Leg.jpg",
    "route": "Cedar Lake"
  },
  {
    "id": 105525207,
    "link": "https://www.travelmidwest.com/lmiga/showCamera.jsp?id=IL-LAKECOUNTY-658&direction=N",
    "name": "Cedar Lake at Monaville (Cellular)",
    "direction": "N",
    "latitude": 42.39799,
    "longitude": -88.0921,
    "imageUrl": "https://www.lakecountypassage.com/snapshots/Cedar_Lake_@_Monaville_(Cellular)_cctv_North_Leg.jpg",
    "route": "Cedar Lake"
  },
  {
    "id": 105525208,
    "link": "https://www.travelmidwest.com/lmiga/showCamera.jsp?id=IL-LAKECOUNTY-412&direction=W",
    "name": "Aptakisic at Bond IP",
    "direction": "W",
    "latitude": 42.18279,
    "longitude": -87.94619,
    "imageUrl": "https://www.lakecountypassage.com/snapshots/Aptakisic_@_Bond_IP_cctv_West_Leg.jpg",
    "route": "Aptakisic"
  },
  {
    "id": 105525209,
    "link": "https://www.travelmidwest.com/lmiga/showCamera.jsp?id=IL-LAKECOUNTY-412&direction=E",
    "name": "Aptakisic at Bond IP",
    "direction": "E",
    "latitude": 42.18279,
    "longitude": -87.94619,
    "imageUrl": "https://www.lakecountypassage.com/snapshots/Aptakisic_@_Bond_IP_cctv_East_Leg.jpg",
    "route": "Aptakisic"
  },
  {
    "id": 105525210,
    "link": "https://www.travelmidwest.com/lmiga/showCamera.jsp?id=IL-LAKECOUNTY-412&direction=N",
    "name": "Aptakisic at Bond IP",
    "direction": "N",
    "latitude": 42.18279,
    "longitude": -87.94619,
    "imageUrl": "https://www.lakecountypassage.com/snapshots/Aptakisic_@_Bond_IP_cctv_North_Leg.jpg",
    "route": "Aptakisic"
  },
  {
    "id": 105525211,
    "link": "https://www.travelmidwest.com/lmiga/showCamera.jsp?id=IL-LAKECOUNTY-31295&direction=W",
    "name": "US-45 at Diamond Lake",
    "direction": "W",
    "latitude": 42.25419,
    "longitude": -88.0008,
    "imageUrl": "https://www.lakecountypassage.com/snapshots/US_45_@_Diamond_Lake_cctv_West_Leg.jpg",
    "route": "US-45"
  },
  {
    "id": 105525212,
    "link": "https://www.travelmidwest.com/lmiga/showCamera.jsp?id=IL-LAKECOUNTY-31295&direction=S",
    "name": "US-45 at Diamond Lake",
    "direction": "S",
    "latitude": 42.25419,
    "longitude": -88.0008,
    "imageUrl": "https://www.lakecountypassage.com/snapshots/US_45_@_Diamond_Lake_cctv_South_Leg.jpg",
    "route": "US-45"
  },
  {
    "id": 105525213,
    "link": "https://www.travelmidwest.com/lmiga/showCamera.jsp?id=IL-LAKECOUNTY-31295&direction=N",
    "name": "US-45 at Diamond Lake",
    "direction": "N",
    "latitude": 42.25419,
    "longitude": -88.0008,
    "imageUrl": "https://www.lakecountypassage.com/snapshots/US_45_@_Diamond_Lake_cctv_North_Leg.jpg",
    "route": "US-45"
  },