[
  {
    "Id": "4355--5",
    "Organization": "AZDOT",
    "RoadwayName": "L-202",
    "DirectionOfTravel": "Westbound",
    "Latitude": 33.2929391550001,
    "Longitude": -111.997846605,
    "Name": "L-202 WB 56.91 @40th St",
    "Url": "https://az511.com/map/Cctv/4355--5",
    "Status": "Enabled",
    "Description": "L-202 @ 56.91"
  },
  {
    "Id": "4357--5",
    "Organization": "AZDOT",
    "RoadwayName": "L-202",
    "DirectionOfTravel": "Westbound",
    "Latitude": 33.2930250810001,
    "Longitude": -112.032689955,
    "Name": "L-202 WB 58.91 @24th St",
    "Url": "https://az511.com/map/Cctv/4357--5",
    "Status": "Enabled",
    "Description": "L-202 @ 58.91"
  },
  {
    "Id": "4360--5",
    "Organization": "AZDOT",
    "RoadwayName": "L-202",
    "DirectionOfTravel": "Eastbound",
    "Latitude": 33.290404311,
    "Longitude": -112.077243043,
    "Name": "L-202 EB 61.72 @W of Desert Foothills",
    "Url": "https://az511.com/map/Cctv/4360--5",
    "Status": "Enabled",
    "Description": "L-202 @ 61.72"
  },
  {
    "Id": "4361--5",
    "Organization": "AZDOT",
    "RoadwayName": "L-202",
    "DirectionOfTravel": "Westbound",
    "Latitude": 33.292767301,
    "Longitude": -112.097779567,
    "Name": "L-202 WB 62.69 @17th Ave",
    "Url": "https://az511.com/map/Cctv/4361--5",
    "Status": "Enabled",
    "Description": "L-202 @ 62.69"
  },
  {
    "Id": "4362--5",
    "Organization": "AZDOT",
    "RoadwayName": "L-202",
    "DirectionOfTravel": "Eastbound",
    "Latitude": 33.290662092,
    "Longitude": -112.113719004,
    "Name": "L-202 EB 63.83 @W of 17th Ave",
    "Url": "https://az511.com/map/Cctv/4362--5",
    "Status": "Enabled",
    "Description": "L-202 @ 63.83"
  },
  {
    "Id": "4363--5",
    "Organization": "AZDOT",
    "RoadwayName": "L-202",
    "DirectionOfTravel": "Eastbound",
    "Latitude": 33.290997776,
    "Longitude": -112.132148665,
    "Name": "L-202 EB 64.69 @Bend",
    "Url": "https://az511.com/map/Cctv/4363--5",
    "Status": "Enabled",
    "Description": "L-202 @ 64.69"
  },
  {
    "Id": "4364--5",
    "Organization": "AZDOT",
    "RoadwayName": "L-202",
    "DirectionOfTravel": "Eastbound",
    "Latitude": 33.3027697580001,
    "Longitude": -112.145381405,
    "Name": "L-202 EB 65.71 @S of Ivanhoe",
    "Url": "https://az511.com/map/Cctv/4364--5",
    "Status": "Enabled",
    "Description": "L-202 @ 65.71"
  },
  {
    "Id": "4365--5",
    "Organization": "AZDOT",
    "RoadwayName": "L-202",
    "DirectionOfTravel": "Eastbound",
    "Latitude": 33.311706154,
    "Longitude": -112.155177069,
    "Name": "L-202 EB 66.91 @Ivanhoe",
    "Url": "https://az511.com/map/Cctv/4365--5",
    "Status": "Enabled",
    "Description": "L-202 @ 66.91"
  },
  {
    "Id": "4366--5",
    "Organization": "AZDOT",
    "RoadwayName": "L-202",
    "DirectionOfTravel": "Eastbound",
    "Latitude": 33.325196674,
    "Longitude": -112.168323882,
    "Name": "L-202 EB 67.89 @51st ave",
    "Url": "https://az511.com/map/Cctv/4366--5",
    "Status": "Enabled",
    "Description": "L-202 @ 67.89"
  },
  {
    "Id": "4367--5",
    "Organization": "AZDOT",
    "RoadwayName": "L-202",
    "DirectionOfTravel": "Westbound",
    "Latitude": 33.3352501190001,
    "Longitude": -112.175112106,
    "Name": "L-202 WB 68.53 @Estrella Dr",
    "Url": "https://az511.com/map/Cctv/4367--5",
    "Status": "Enabled",
    "Description": "L-202 @ 68.53"
  },
  {
    "Id": "4368--5",
    "Organization": "AZDOT",
    "RoadwayName": "L-202",
    "DirectionOfTravel": "Eastbound",
    "Latitude": 33.3471939560001,
    "Longitude": -112.191266359,
    "Name": "L-202 EB 69.83 @Elliot",
    "Url": "https://az511.com/map/Cctv/4368--5",
    "Status": "Enabled",
    "Description": "L-202 @ 69.83"
  },
  {
    "Id": "4369--5",
    "Organization": "AZDOT",
    "RoadwayName": "L-202",
    "DirectionOfTravel": "Westbound",
    "Latitude": 33.362059306,
    "Longitude": -112.190664871,
    "Name": "L-202 WB 70.93 @Dobbins",
    "Url": "https://az511.com/map/Cctv/4369--5",
    "Status": "Enabled",
    "Description": "L-202 @ 70.93"
  },
  {
    "Id": "4370--5",
    "Organization": "AZDOT",
    "RoadwayName": "L-202",
    "DirectionOfTravel": "Westbound",
    "Latitude": 33.376495022,
    "Longitude": -112.188001138,
    "Name": "L-202 WB 71.81 @Baseline",
    "Url": "https://az511.com/map/Cctv/4370--5",
    "Status": "Enabled",
    "Description": "L-202 @ 71.81"
  },
  {
    "Id": "4371--5",
    "Organization": "AZDOT",
    "RoadwayName": "L-202",
    "DirectionOfTravel": "Eastbound",
    "Latitude": 33.3911387200001,
    "Longitude": -112.192507651,
    "Name": "L-202 EB 72.83 @Southern",
    "Url": "https://az511.com/map/Cctv/4371--5",
    "Status": "Enabled",
    "Description": "L-202 @ 72.83"
  },
  {
    "Id": "4372--5",
    "Organization": "AZDOT",
    "RoadwayName": "L-202",
    "DirectionOfTravel": "Westbound",
    "Latitude": 33.4070849920001,
    "Longitude": -112.190235237,
    "Name": "L-202 WB 73.77 @Broadway",
    "Url": "https://az511.com/map/Cctv/4372--5",
    "Status": "Enabled",
    "Description": "L-202 @ 73.77"
  },
  {
    "Id": "4373--5",
    "Organization": "AZDOT",
    "RoadwayName": "L-202",
    "DirectionOfTravel": "Eastbound",
    "Latitude": 33.425301491,
    "Longitude": -112.19040709,
    "Name": "L-202 EB 75.13 @Lower Buckeye",
    "Url": "https://az511.com/map/Cctv/4373--5",
    "Status": "Enabled",
    "Description": "L-202 @ 75.13"
  },
  {
    "Id": "4374--5",
    "Organization": "AZDOT",
    "RoadwayName": "L-202",
    "DirectionOfTravel": "Westbound",
    "Latitude": 33.436042351,
    "Longitude": -112.185509258,
    "Name": "L-202 WB 75.98 @Buckeye",
    "Url": "https://az511.com/map/Cctv/4374--5",
    "Status": "Enabled",
    "Description": "L-202 @ 75.98"
  },
  {
    "Id": "4375--5",
    "Organization": "AZDOT",
    "RoadwayName": "L-202",
    "DirectionOfTravel": "Eastbound",
    "Latitude": 33.4505639930001,
    "Longitude": -112.187485576,
    "Name": "L-202 EB 76.97 @Van Buren",
    "Url": "https://az511.com/map/Cctv/4375--5",
    "Status": "Enabled",
    "Description": "L-202 @ 76.97"
  },
  {
    "Id": "4376--5",
    "Organization": "AZDOT",
    "RoadwayName": "L-202",
    "DirectionOfTravel": "Westbound",
    "Latitude": 33.4614314340001,
    "Longitude": -112.184969885,
    "Name": "L-202 WB 77.69 @I10",
    "Url": "https://az511.com/map/Cctv/4376--5",
    "Status": "Enabled",
    "Description": "L-202 @ 77.69"
  },
  {
    "Id": "4000--14",
    "Organization": "VOD",
    "RoadwayName": "I-10",
    "DirectionOfTravel": "Westbound",
    "Latitude": 32.1941850420001,
    "Longitude": -110.975993848,
    "Name": "I-10 WB 260.10 @I-19",
    "Url": "https://az511.com/map/Cctv/4000--14",
    "Status": "Enabled",
    "Description": "I-10 @ 260.1"
  },
  {
    "Id": "4001--14",
    "Organization": "VOD",
    "RoadwayName": "I-10",
    "DirectionOfTravel": "Westbound",
    "Latitude": 32.2064570910001,
    "Longitude": -110.9798498,
    "Name": "I-10 WB 259.40 @22nd St",
    "Url": "https://az511.com/map/Cctv/4001--14",
    "Status": "Enabled",
    "Description": "I-10 @ 259.4"
  },
  {
    "Id": "4002--14",
    "Organization": "VOD",
    "RoadwayName": "I-10",
    "DirectionOfTravel": "Westbound",
    "Latitude": 32.2206333780001,
    "Longitude": -110.980280975,
    "Name": "I-10 WB 258.40 @Congress",
    "Url": "https://az511.com/map/Cctv/4002--14",
    "Status": "Enabled",
    "Description": "I-10 @ 258.4"
  },
  {
    "Id": "4003--14",
    "Organization": "VOD",
    "RoadwayName": "I-10",
    "DirectionOfTravel": "Eastbound",
    "Latitude": 32.2360183750001,
    "Longitude": -110.984391307,
    "Name": "I-10 EB 257.40 @Speedway",
    "Url": "https://az511.com/map/Cctv/4003--14",
    "Status": "Enabled",
    "Description": "I-10 @ 257.4"
  },
  {
    "Id": "4004--14",
    "Organization": "VOD",
    "RoadwayName": "I-10",
    "DirectionOfTravel": "Eastbound",
    "Latitude": 32.2500507680001,
    "Longitude": -110.992492495,
    "Name": "I-10 EB 256.20 @Grant",
    "Url": "https://az511.com/map/Cctv/4004--14",
    "Status": "Enabled",
    "Description": "I-10 @ 256.2"
  },
  {
    "Id": "4005--14",
    "Organization": "VOD",
    "RoadwayName": "I-10",
    "DirectionOfTravel": "Eastbound",
    "Latitude": 32.260276666,
    "Longitude": -111.003556389,
    "Name": "I-10 EB 255.20 @Miracle Mile",
    "Url": "https://az511.com/map/Cctv/4005--14",
    "Status": "Enabled",
    "Description": "I-10 @ 255.2"
  },
  {
    "Id": "4006--14",
    "Organization": "VOD",
    "RoadwayName": "I-10",
    "DirectionOfTravel": "Westbound",
    "Latitude": 32.268856274,
    "Longitude": -111.00771676,
    "Name": "I-10 WB 254.63 @S of Prince",
    "Url": "https://az511.com/map/Cctv/4006--14",
    "Status": "Enabled",
    "Description": "I-10 @ 254.63"
  },
  {
    "Id": "4007--14",
    "Organization": "VOD",
    "RoadwayName": "I-10",
    "DirectionOfTravel": "Westbound",
    "Latitude": 32.2821739340001,
    "Longitude": -111.018847007,
    "Name": "I-10 WB 253.48 @N of Prince",
    "Url": "https://az511.com/map/Cctv/4007--14",
    "Status": "Enabled",
    "Description": "I-10 @ 253.48"
  },
  {
    "Id": "4008--14",
    "Organization": "VOD",
    "RoadwayName": "I-10",
    "DirectionOfTravel": "Westbound",
    "Latitude": 32.2938499690001,
    "Longitude": -111.029030249,
    "Name": "I-10 WB 252.60 @Ruthrauff",
    "Url": "https://az511.com/map/Cctv/4008--14",
    "Status": "Enabled",
    "Description": "I-10 @ 252.6"
  },
  {
    "Id": "4009--14",
    "Organization": "VOD",
    "RoadwayName": "I-10",
    "DirectionOfTravel": "Westbound",
    "Latitude": 32.3095436900001,
    "Longitude": -111.041924915,
    "Name": "I-10 WB 251.20 @Sunset",
    "Url": "https://az511.com/map/Cctv/4009--14",
    "Status": "Enabled",
    "Description": "I-10 @ 251.2"
  },
  {
    "Id": "4010--14",
    "Organization": "VOD",
    "RoadwayName": "I-10",
    "DirectionOfTravel": "Westbound",
    "Latitude": 32.323266115,
    "Longitude": -111.051347546,
    "Name": "I-10 WB 250.00 @Orange Grove",
    "Url": "https://az511.com/map/Cctv/4010--14",
    "Status": "Enabled",
    "Description": "I-10 @ 250.0"
  },
  {
    "Id": "4011--14",
    "Organization": "VOD",
    "RoadwayName": "I-10",
    "DirectionOfTravel": "Westbound",
    "Latitude": 32.337249657,
    "Longitude": -111.065908859,
    "Name": "I-10 WB 248.70 @Ina",
    "Url": "https://az511.com/map/Cctv/4011--14",
    "Status": "Enabled",
    "Description": "I-10 @ 248.7"
  },
  {
    "Id": "4012--14",
    "Organization": "VOD",
    "RoadwayName": "I-19",
    "DirectionOfTravel": "Northbound",
    "Latitude": 32.1887751420001,
    "Longitude": -110.98174048,
    "Name": "I-19 NB 62.68 @N of Ajo",
    "Url": "https://az511.com/map/Cctv/4012--14",
    "Status": "Enabled",
    "Description": "I-19 @ 62.68"
  },
  {
    "Id": "4013--14",
    "Organization": "VOD",
    "RoadwayName": "I-19",
    "DirectionOfTravel": "Southbound",
    "Latitude": 32.1783,
    "Longitude": -110.986116667,
    "Name": "I-19 SB 61.88 @Ajo",
    "Url": "https://az511.com/map/Cctv/4013--14",
    "Status": "Enabled",
    "Description": "I-19 @ 61.88"
  },
  {
    "Id": "4014--14",
    "Organization": "VOD",
    "RoadwayName": "I-19",
    "DirectionOfTravel": "Northbound",
    "Latitude": 32.16314033,
    "Longitude": -110.985381237,
    "Name": "I-19 NB 60.88 @Irvington",
    "Url": "https://az511.com/map/Cctv/4014--14",
    "Status": "Enabled",
    "Description": "I-19 @ 60.88"
  },
  {
    "Id": "4015--14",
    "Organization": "VOD",
    "RoadwayName": "I-19",
    "DirectionOfTravel": "Northbound",
    "Latitude": 32.155468549,
    "Longitude": -110.986069955,
    "Name": "I-19 NB 60.31 @S of Irvington",
    "Url": "https://az511.com/map/Cctv/4015--14",
    "Status": "Enabled",
    "Description": "I-19 @ 60.31"
  },
  {
    "Id": "4016--14",
    "Organization": "VOD",
    "RoadwayName": "I-19",
    "DirectionOfTravel": "Southbound",
    "Latitude": 32.1486694870001,
    "Longitude": -110.986958173,
    "Name": "I-19 SB 59.83 @Drexel",
    "Url": "https://az511.com/map/Cctv/4016--14",
    "Status": "Enabled",
    "Description": "I-19 @ 59.83"
  },
  {
    "Id": "4017--14",
    "Organization": "VOD",
    "RoadwayName": "I-19",
    "DirectionOfTravel": "Northbound",
    "Latitude": 32.1335834590001,
    "Longitude": -110.986184051,
    "Name": "I-19 NB 58.81 @Valencia",
    "Url": "https://az511.com/map/Cctv/4017--14",
    "Status": "Enabled",
    "Description": "I-19 @ 58.81"
  },
  {
    "Id": "4018--14",
    "Organization": "VOD",
    "RoadwayName": "I-19",
    "DirectionOfTravel": "Northbound",
    "Latitude": 32.1193626300001,
    "Longitude": -110.988813773,
    "Name": "I-19 NB 57.82 @N of San Xavier",
    "Url": "https://az511.com/map/Cctv/4018--14",
    "Status": "Enabled",
    "Description": "I-19 @ 57.82"
  },
  {
    "Id": "4019--14",
    "Organization": "VOD",
    "RoadwayName": "I-10",
    "DirectionOfTravel": "    ",
    "Latitude": 32.1867387120001,
    "Longitude": -110.968562573,
    "Name": "I-10  EB 260.97 @6th Ave",
    "Url": "https://az511.com/map/Cctv/4019--14",
    "Status": "Enabled",
    "Description": "I-10 @ 260.97"
  },
  {
    "Id": "4020--14",
    "Organization": "VOD",
    "RoadwayName": "I-10",
    "DirectionOfTravel": "Westbound",
    "Latitude": 32.1857367920001,
    "Longitude": -110.96188175,
    "Name": "I-10 WB 261.36 @E of 6th Ave",
    "Url": "https://az511.com/map/Cctv/4020--14",
    "Status": "Enabled",
    "Description": "I-10 @ 261.36"
  },
  {
    "Id": "4021--14",
    "Organization": "VOD",
    "RoadwayName": "I-10",
    "DirectionOfTravel": "Westbound",
    "Latitude": 32.183763605,
    "Longitude": -110.955732438,
    "Name": "I-10 WB 261.75 @Park",
    "Url": "https://az511.com/map/Cctv/4021--14",
    "Status": "Enabled",
    "Description": "I-10 @ 261.75"
  },
  {
    "Id": "4022--14",
    "Organization": "VOD",
    "RoadwayName": "I-10",
    "DirectionOfTravel": "Westbound",
    "Latitude": 32.1773247720001,
    "Longitude": -110.944053492,
    "Name": "I-10 WB 262.56 @Kino",
    "Url": "https://az511.com/map/Cctv/4022--14",
    "Status": "Enabled",
    "Description": "I-10 @ 262.56"
  },
  {
    "Id": "4023--14",
    "Organization": "VOD",
    "RoadwayName": "I-10",
    "DirectionOfTravel": "Westbound",
    "Latitude": 32.1674640030001,
    "Longitude": -110.926599132,
    "Name": "I-10 WB 263.80 @Country Club",
    "Url": "https://az511.com/map/Cctv/4023--14",
    "Status": "Enabled",
    "Description": "I-10 @ 263.8"
  },
  {
    "Id": "4024--14",
    "Organization": "VOD",
    "RoadwayName": "I-10",
    "DirectionOfTravel": "Westbound",
    "Latitude": 32.162253402,
    "Longitude": -110.917265592,
    "Name": "I-10 WB 264.46 @Palo Verde",
    "Url": "https://az511.com/map/Cctv/4024--14",
    "Status": "Enabled",
    "Description": "I-10 @ 264.46"
  },
  {
    "Id": "4025--14",
    "Organization": "VOD",
    "RoadwayName": "I-10",
    "DirectionOfTravel": "Eastbound",
    "Latitude": 32.156980936,
    "Longitude": -110.908856772,
    "Name": "I-10 EB 265.08 @Alvernon",
    "Url": "https://az511.com/map/Cctv/4025--14",
    "Status": "Enabled",
    "Description": "I-10 @ 265.08"
  },
  {
    "Id": "4026--14",
    "Organization": "VOD",
    "RoadwayName": "I-10",
    "DirectionOfTravel": "Westbound",
    "Latitude": 32.149093957,
    "Longitude": -110.895983515,
    "Name": "I-10 WB 265.97 @Drexel",
    "Url": "https://az511.com/map/Cctv/4026--14",
    "Status": "Enabled",
    "Description": "I-10 @ 265.97"
  },
  {
    "Id": "4027--14",
    "Organization": "VOD",
    "RoadwayName": "I-10",
    "DirectionOfTravel": "Eastbound",
    "Latitude": 32.134640587,
    "Longitude": -110.88805042,
    "Name": "I-10 EB 267.10 @Valencia",
    "Url": "https://az511.com/map/Cctv/4027--14",
    "Status": "Enabled",
    "Description": "I-10 @ 267.1"
  },
  {
    "Id": "4028--14",
    "Organization": "VOD",
    "RoadwayName": "I-10",
    "DirectionOfTravel": "Eastbound",
    "Latitude": 32.271503481,
    "Longitude": -111.010886062,
    "Name": "I-10 EB 254.35 @Prince",
    "Url": "https://az511.com/map/Cctv/4028--14",
    "Status": "Enabled",
    "Description": "I-10 @ 254.35"
  },
  {
    "Id": "4058--14",
    "Organization": "VOD",
    "RoadwayName": "I-10",
    "DirectionOfTravel": "Westbound",
    "Latitude": 32.332810867,
    "Longitude": -111.06015612,
    "Name": "I-10 WB 249.00 @E of Ina",
    "Url": "https://az511.com/map/Cctv/4058--14",
    "Status": "Enabled",
    "Description": "I-10 @ 249.0"
  },
  {
    "Id": "4059--14",
    "Organization": "VOD",
    "RoadwayName": "L-202",
    "DirectionOfTravel": "Eastbound",
    "Latitude": 33.475035163,
    "Longitude": -111.701033528,
    "Name": "L-202 EB 22.20 @Recker",
    "Url": "https://az511.com/map/Cctv/4059--14",
    "Status": "Enabled",
    "Description": "L-202 @ 22.2"
  },
  {
    "Id": "4060--14",
    "Organization": "VOD",
    "RoadwayName": "I-10",
    "DirectionOfTravel": "Westbound",
    "Latitude": 33.4625436740001,
    "Longitude": -112.139753453,
    "Name": "I-10 WB 141.33 @W of 35th Ave",
    "Url": "https://az511.com/map/Cctv/4060--14",
    "Status": "Enabled",
    "Description": "I-10 @ 141.33"
  },
  {
    "Id": "4061--14",
    "Organization": "VOD",
    "RoadwayName": "I-10",
    "DirectionOfTravel": "Westbound",
    "Latitude": 33.46296174,
    "Longitude": -112.13027357,
    "Name": "I-10 WB 141.92 @E of 35th Ave",
    "Url": "https://az511.com/map/Cctv/4061--14",
    "Status": "Enabled",
    "Description": "I-10 @ 141.92"
  },
  {
    "Id": "4062--14",
    "Organization": "VOD",
    "RoadwayName": "I-10",
    "DirectionOfTravel": "Westbound",
    "Latitude": 33.4613433660001,
    "Longitude": -112.084160286,
    "Name": "I-10 WB 144.58 @W of 7th Ave",
    "Url": "https://az511.com/map/Cctv/4062--14",
    "Status": "Enabled",
    "Description": "I-10 @ 144.58"
  },
  {
    "Id": "4063--14",
    "Organization": "VOD",
    "RoadwayName": "L-101",
    "DirectionOfTravel": "Westbound",
    "Latitude": 33.668643721,
    "Longitude": -112.186499237,
    "Name": "L-101 WB 19.17 @59 AVE",
    "Url": "https://az511.com/map/Cctv/4063--14",
    "Status": "Enabled",
    "Description": "L-101 @ 19.17"
  },
  {
    "Id": "4064--14",
    "Organization": "VOD",
    "RoadwayName": "L-101",
    "DirectionOfTravel": "Eastbound",
    "Latitude": 33.6673990240001,
    "Longitude": -112.220044968,
    "Name": "L-101 EB 17.53 @75 AVE",
    "Url": "https://az511.com/map/Cctv/4064--14",
    "Status": "Enabled",
    "Description": "L-101 @ 17.53"
  },
  {
    "Id": "4065--14",
    "Organization": "VOD",
    "RoadwayName": "L-101",
    "DirectionOfTravel": "Southbound",
    "Latitude": 33.665421533,
    "Longitude": -112.229389352,
    "Name": "L-101 SB 16.59 @N of Union Hills Rd",
    "Url": "https://az511.com/map/Cctv/4065--14",
    "Status": "Enabled",
    "Description": "L-101 @ 16.59"
  },
  {
    "Id": "4066--14",
    "Organization": "VOD",
    "RoadwayName": "L-101",
    "DirectionOfTravel": "Northbound",
    "Latitude": 33.622245806,
    "Longitude": -112.239551809,
    "Name": "L-101 NB 13.49 @S of Bell Rd",
    "Url": "https://az511.com/map/Cctv/4066--14",
    "Status": "Enabled",
    "Description": "L-101 @ 13.49"
  },
  {
    "Id": "4067--14",
    "Organization": "VOD",
    "RoadwayName": "L-101",
    "DirectionOfTravel": "Northbound",
    "Latitude": 33.4798827170001,
    "Longitude": -112.26363831,
    "Name": "L-101 NB 2.97 @Thomas",
    "Url": "https://az511.com/map/Cctv/4067--14",
    "Status": "Enabled",
    "Description": "L-101 @ 2.97"
  },
  {
    "Id": "4068--14",
    "Organization": "VOD",
    "RoadwayName": "I-10",
    "DirectionOfTravel": "Eastbound",
    "Latitude": 33.3196629380001,
    "Longitude": -111.972704627,
    "Name": "I-10 EB 159.77 @Ray",
    "Url": "https://az511.com/map/Cctv/4068--14",
    "Status": "Enabled",
    "Description": "I-10 @ 159.77"
  },
  {
    "Id": "4069--14",
    "Organization": "VOD",
    "RoadwayName": "I-10",
    "DirectionOfTravel": "Westbound",
    "Latitude": 33.3048233800001,
    "Longitude": -111.971914018,
    "Name": "I-10 WB 160.73 @Chandler",
    "Url": "https://az511.com/map/Cctv/4069--14",
    "Status": "Enabled",
    "Description": "I-10 @ 160.73"
  },
  {
    "Id": "4070--14",
    "Organization": "VOD",
    "RoadwayName": "I-10",
    "DirectionOfTravel": "    ",
    "Latitude": 33.2963013990001,
    "Longitude": -111.972181599,
    "Name": "I-10 M 161.35 @L-202",
    "Url": "https://az511.com/map/Cctv/4070--14",
    "Status": "Enabled",
    "Description": "I-10 @ 161.35"
  },
  {
    "Id": "4071--14",
    "Organization": "VOD",
    "RoadwayName": "I-10",
    "DirectionOfTravel": "Eastbound",
    "Latitude": 33.279054247,
    "Longitude": -111.967068639,
    "Name": "I-10 EB 162.59 @Wild Horse",
    "Url": "https://az511.com/map/Cctv/4071--14",
    "Status": "Enabled",
    "Description": "I-10 @ 162.59"
  },
  {
    "Id": "4072--14",
    "Organization": "VOD",
    "RoadwayName": "I-10",
    "DirectionOfTravel": "Eastbound",
    "Latitude": 33.2686455320001,
    "Longitude": -111.95888468,
    "Name": "I-10 EB 163.44 @W of Queen Creek",
    "Url": "https://az511.com/map/Cctv/4072--14",
    "Status": "Enabled",
    "Description": "I-10 @ 163.44"
  },
  {
    "Id": "4073--14",
    "Organization": "VOD",
    "RoadwayName": "I-10",
    "DirectionOfTravel": "Westbound",
    "Latitude": 33.2659893330001,
    "Longitude": -111.955795908,
    "Name": "I-10 WB 163.67 @E of Wild Horse",
    "Url": "https://az511.com/map/Cctv/4073--14",
    "Status": "Enabled",
    "Description": "I-10 @ 163.67"
  },
  {
    "Id": "4074--14",
    "Organization": "VOD",
    "RoadwayName": "L-202",
    "DirectionOfTravel": "Eastbound",
    "Latitude": 33.2868450670001,
    "Longitude": -111.876528182,
    "Name": "L-202 EB 49.64 @Dobson",
    "Url": "https://az511.com/map/Cctv/4074--14",
    "Status": "Enabled",
    "Description": "L-202 @ 49.64"
  },
  {
    "Id": "4075--14",
    "Organization": "VOD",
    "RoadwayName": "L-202",
    "DirectionOfTravel": "Westbound",
    "Latitude": 33.2922768110001,
    "Longitude": -111.911466139,
    "Name": "L-202 WB 51.74 @McClintock",
    "Url": "https://az511.com/map/Cctv/4075--14",
    "Status": "Enabled",
    "Description": "L-202 @ 51.74"
  },
  {
    "Id": "4076--14",
    "Organization": "VOD",
    "RoadwayName": "L-202",
    "DirectionOfTravel": "Eastbound",
    "Latitude": 33.291098257,
    "Longitude": -111.928142184,
    "Name": "L-202 EB 52.71 @W of McClintock",
    "Url": "https://az511.com/map/Cctv/4076--14",
    "Status": "Enabled",
    "Description": "L-202 @ 52.71"
  },
  {
    "Id": "4077--14",
    "Organization": "VOD",
    "RoadwayName": "L-202",
    "DirectionOfTravel": "Westbound",
    "Latitude": 33.292635606,
    "Longitude": -111.945406672,
    "Name": "L-202 WB 53.71 @Kyrene",
    "Url": "https://az511.com/map/Cctv/4077--14",
    "Status": "Enabled",
    "Description": "L-202 @ 53.71"
  },
  {
    "Id": "4078--14",
    "Organization": "VOD",
    "RoadwayName": "L-202",
    "DirectionOfTravel": "Eastbound",
    "Latitude": 33.2953720180001,
    "Longitude": -111.963909346,
    "Name": "L-202 EB 54.78 @56 st",
    "Url": "https://az511.com/map/Cctv/4078--14",
    "Status": "Enabled",
    "Description": "L-202 @ 54.78"
  },
  {
    "Id": "4079--14",
    "Organization": "VOD",
    "RoadwayName": "L-202",
    "DirectionOfTravel": "Westbound",
    "Latitude": 33.297067285,
    "Longitude": -111.974923153,
    "Name": "L-202 WB 55.44 @West of I-10",
    "Url": "https://az511.com/map/Cctv/4079--14",
    "Status": "Enabled",
    "Description": "L-202 @ 55.44"
  },
  {
    "Id": "4080--14",
    "Organization": "VOD",
    "RoadwayName": "L-101",
    "DirectionOfTravel": "Westbound",
    "Latitude": 33.669507185,
    "Longitude": -112.13505244,
    "Name": "L-101 WB 22.07 @35 AVE",
    "Url": "https://az511.com/map/Cctv/4080--14",
    "Status": "Enabled",
    "Description": "L-101 @ 22.07"
  },
  {
    "Id": "4081--14",
    "Organization": "VOD",
    "RoadwayName": "L-101",
    "DirectionOfTravel": "Northbound",
    "Latitude": 33.535330742,
    "Longitude": -112.269420379,
    "Name": "L-101 NB 6.88 @Glendale",
    "Url": "https://az511.com/map/Cctv/4081--14",
    "Status": "Enabled",
    "Description": "L-101 @ 6.88"
  },
  {
    "Id": "4082--14",
    "Organization": "VOD",
    "RoadwayName": "L-202",
    "DirectionOfTravel": "Westbound",
    "Latitude": 33.477605962,
    "Longitude": -111.775706379,
    "Name": "L-202 WB 17.66 @E of McDowell Rd",
    "Url": "https://az511.com/map/Cctv/4082--14",
    "Status": "Enabled",
    "Description": "L-202 @ 17.66"
  },
  {
    "Id": "4083--14",
    "Organization": "VOD",
    "RoadwayName": "L-202",
    "DirectionOfTravel": "Westbound",
    "Latitude": 33.483016191,
    "Longitude": -111.753890744,
    "Name": "L-202 WB 19.00 @Val Vista",
    "Url": "https://az511.com/map/Cctv/4083--14",
    "Status": "Enabled",
    "Description": "L-202 @ 19.0"
  },
  {
    "Id": "4084--14",
    "Organization": "VOD",
    "RoadwayName": "L-202",
    "DirectionOfTravel": "Eastbound",
    "Latitude": 33.4800476980001,
    "Longitude": -111.746820842,
    "Name": "L-202 EB 19.45 @W of Greenfield",
    "Url": "https://az511.com/map/Cctv/4084--14",
    "Status": "Enabled",
    "Description": "L-202 @ 19.45"
  },
  {
    "Id": "4085--14",
    "Organization": "VOD",
    "RoadwayName": "L-202",
    "DirectionOfTravel": "Eastbound",
    "Latitude": 33.4802659000001,
    "Longitude": -111.735405556,
    "Name": "L-202 EB 20.12 @Greenfield",
    "Url": "https://az511.com/map/Cctv/4085--14",
    "Status": "Enabled",
    "Description": "L-202 @ 20.12"
  },
  {
    "Id": "4086--14",
    "Organization": "VOD",
    "RoadwayName": "L-202",
    "DirectionOfTravel": "Westbound",
    "Latitude": 33.4817843330001,
    "Longitude": -111.718899534,
    "Name": "L-202 WB 21.06 @Higley",
    "Url": "https://az511.com/map/Cctv/4086--14",
    "Status": "Enabled",
    "Description": "L-202 @ 21.06"
  },
  {
    "Id": "4087--14",
    "Organization": "VOD",
    "RoadwayName": "L-202",
    "DirectionOfTravel": "Westbound",
    "Latitude": 33.4784657370001,
    "Longitude": -111.710136798,
    "Name": "L-202 WB 21.61 @E of Higley",
    "Url": "https://az511.com/map/Cctv/4087--14",
    "Status": "Enabled",
    "Description": "L-202 @ 21.61"
  },
  {
    "Id": "4088--14",
    "Organization": "VOD",
    "RoadwayName": "L-202",
    "DirectionOfTravel": "Westbound",
    "Latitude": 33.473661668,
    "Longitude": -111.684540154,
    "Name": "L-202 WB 23.18 @Power",
    "Url": "https://az511.com/map/Cctv/4088--14",
    "Status": "Enabled",
    "Description": "L-202 @ 23.18"
  },
  {
    "Id": "4089--14",
    "Organization": "VOD",
    "RoadwayName": "L-202",
    "DirectionOfTravel": "Westbound",
    "Latitude": 33.4660449990001,
    "Longitude": -111.679124175,
    "Name": "L-202 WB 23.79 @McDowell",
    "Url": "https://az511.com/map/Cctv/4089--14",
    "Status": "Enabled",
    "Description": "L-202 @ 23.79"
  },
  {
    "Id": "4090--14",
    "Organization": "VOD",
    "RoadwayName": "L-202",
    "DirectionOfTravel": "Eastbound",
    "Latitude": 33.451187824,
    "Longitude": -111.670010709,
    "Name": "L-202 EB 24.94 @McKellips Rd",
    "Url": "https://az511.com/map/Cctv/4090--14",
    "Status": "Enabled",
    "Description": "L-202 @ 24.94"
  },
  {
    "Id": "4091--14",
    "Organization": "VOD",
    "RoadwayName": "L-202",
    "DirectionOfTravel": "Eastbound",
    "Latitude": 33.449433163,
    "Longitude": -111.666965753,
    "Name": "L-202 EB 24.94 @McKellips Rd",
    "Url": "https://az511.com/map/Cctv/4091--14",
    "Status": "Enabled",
    "Description": "L-202 @ 24.94"
  },
  {
    "Id": "4092--14",
    "Organization": "VOD",
    "RoadwayName": "L-202",
    "DirectionOfTravel": "Eastbound",
    "Latitude": 33.437127564,
    "Longitude": -111.651936166,
    "Name": "L-202 EB 26.37 @Brown",
    "Url": "https://az511.com/map/Cctv/4092--14",
    "Status": "Enabled",
    "Description": "L-202 @ 26.37"
  },
  {
    "Id": "4093--14",
    "Organization": "VOD",
    "RoadwayName": "L-202",
    "DirectionOfTravel": "Westbound",
    "Latitude": 33.4306047650001,
    "Longitude": -111.637666618,
    "Name": "L-202 WB 27.31 @E of Brown",
    "Url": "https://az511.com/map/Cctv/4093--14",
    "Status": "Enabled",
    "Description": "L-202 @ 27.31"
  },
  {
    "Id": "4094--14",
    "Organization": "VOD",
    "RoadwayName": "L-202",
    "DirectionOfTravel": "Eastbound",
    "Latitude": 33.422120954,
    "Longitude": -111.636537222,
    "Name": "L-202 EB 27.95 @University",
    "Url": "https://az511.com/map/Cctv/4094--14",
    "Status": "Enabled",
    "Description": "L-202 @ 27.95"
  },
  {
    "Id": "4095--14",
    "Organization": "VOD",
    "RoadwayName": "L-202",
    "DirectionOfTravel": "Westbound",
    "Latitude": 33.41497961,
    "Longitude": -111.636476615,
    "Name": "L-202 WB 28.43 @Apache",
    "Url": "https://az511.com/map/Cctv/4095--14",
    "Status": "Enabled",
    "Description": "L-202 @ 28.43"
  },
  {
    "Id": "4096--14",
    "Organization": "VOD",
    "RoadwayName": "L-202",
    "DirectionOfTravel": "Eastbound",
    "Latitude": 33.4083206290001,
    "Longitude": -111.640885471,
    "Name": "L-202 EB 28.95 @Broadway",
    "Url": "https://az511.com/map/Cctv/4096--14",
    "Status": "Enabled",
    "Description": "L-202 @ 28.95"
  },
  {
    "Id": "4097--14",
    "Organization": "VOD",
    "RoadwayName": "L-202",
    "DirectionOfTravel": "Westbound",
    "Latitude": 33.397276081,
    "Longitude": -111.642010797,
    "Name": "L-202 WB 29.73 @E of Broadway",
    "Url": "https://az511.com/map/Cctv/4097--14",
    "Status": "Enabled",
    "Description": "L-202 @ 29.73"
  },
  {
    "Id": "4098--14",
    "Organization": "VOD",
    "RoadwayName": "L-101",
    "DirectionOfTravel": "Northbound",
    "Latitude": 33.5960459730001,
    "Longitude": -111.891097163,
    "Name": "L-101 NB 40.11 @Cactus",
    "Url": "https://az511.com/map/Cctv/4098--14",
    "Status": "Enabled",
    "Description": "L-101 @ 40.11"
  },
  {
    "Id": "4099--14",
    "Organization": "VOD",
    "RoadwayName": "L-101",
    "DirectionOfTravel": "Northbound",
    "Latitude": 33.6177504400001,
    "Longitude": -111.89092671,
    "Name": "L-101 NB 38.63 @Raintree",
    "Url": "https://az511.com/map/Cctv/4099--14",
    "Status": "Enabled",
    "Description": "L-101 @ 38.63"
  },
  {
    "Id": "4100--14",
    "Organization": "VOD",
    "RoadwayName": "L-101",
    "DirectionOfTravel": "Southbound",
    "Latitude": 33.6291692560001,
    "Longitude": -111.890765939,
    "Name": "L-101 SB 37.84 @FLW Blvd",
    "Url": "https://az511.com/map/Cctv/4100--14",
    "Status": "Enabled",
    "Description": "L-101 @ 37.84"
  },
  {
    "Id": "4101--14",
    "Organization": "VOD",
    "RoadwayName": "L-101",
    "DirectionOfTravel": "Northbound",
    "Latitude": 33.646611696,
    "Longitude": -111.892608805,
    "Name": "L-101 NB 36.96 @Princess Dr",
    "Url": "https://az511.com/map/Cctv/4101--14",
    "Status": "Enabled",
    "Description": "L-101 @ 36.96"
  },
  {
    "Id": "4102--14",
    "Organization": "VOD",
    "RoadwayName": "L-101",
    "DirectionOfTravel": "Southbound",
    "Latitude": 33.3497152040001,
    "Longitude": -111.894259613,
    "Name": "L-101 SB 57.58 @Elliot",
    "Url": "https://az511.com/map/Cctv/4102--14",
    "Status": "Enabled",
    "Description": "L-101 @ 57.58"
  },
  {
    "Id": "4103--14",
    "Organization": "VOD",
    "RoadwayName": "L-101",
    "DirectionOfTravel": "Southbound",
    "Latitude": 33.335186246,
    "Longitude": -111.893282169,
    "Name": "L-101 SB 58.58 @Warner",
    "Url": "https://az511.com/map/Cctv/4103--14",
    "Status": "Enabled",
    "Description": "L-101 @ 58.58"
  },
  {
    "Id": "4104--14",
    "Organization": "VOD",
    "RoadwayName": "L-101",
    "DirectionOfTravel": "Northbound",
    "Latitude": 33.3201082900001,
    "Longitude": -111.89368151,
    "Name": "L-101 NB 59.63 @Ray",
    "Url": "https://az511.com/map/Cctv/4104--14",
    "Status": "Enabled",
    "Description": "L-101 @ 59.63"
  },
  {
    "Id": "4105--14",
    "Organization": "VOD",
    "RoadwayName": "L-101",
    "DirectionOfTravel": "Northbound",
    "Latitude": 33.30538711,
    "Longitude": -111.894027628,
    "Name": "L-101 NB 60.62 @Chandler",
    "Url": "https://az511.com/map/Cctv/4105--14",
    "Status": "Enabled",
    "Description": "L-101 @ 60.62"
  },
  {
    "Id": "4106--14",
    "Organization": "VOD",
    "RoadwayName": "L-202",
    "DirectionOfTravel": "Eastbound",
    "Latitude": 33.2917303890001,
    "Longitude": -111.894261628,
    "Name": "L-202 EB 50.75 @L101",
    "Url": "https://az511.com/map/Cctv/4106--14",
    "Status": "Enabled",
    "Description": "L-202 @ 50.75"
  },
  {
    "Id": "4107--14",
    "Organization": "VOD",
    "RoadwayName": "L-202",
    "DirectionOfTravel": "Westbound",
    "Latitude": 33.292299251,
    "Longitude": -111.902500256,
    "Name": "L-202 WB 51.23 @W of L-101",
    "Url": "https://az511.com/map/Cctv/4107--14",
    "Status": "Enabled",
    "Description": "L-202 @ 51.23"
  },
  {
    "Id": "4108--14",
    "Organization": "VOD",
    "RoadwayName": "L-202",
    "DirectionOfTravel": "Westbound",
    "Latitude": 33.2908649620001,
    "Longitude": -111.886101576,
    "Name": "L-202 WB 50.27 @E of L-101",
    "Url": "https://az511.com/map/Cctv/4108--14",
    "Status": "Enabled",
    "Description": "L-202 @ 50.27"
  },
  {
    "Id": "4109--14",
    "Organization": "VOD",
    "RoadwayName": "L-101",
    "DirectionOfTravel": "Westbound",
    "Latitude": 33.651363836,
    "Longitude": -111.897318228,
    "Name": "L-101 WB 36.21 @E of Hayden",
    "Url": "https://az511.com/map/Cctv/4109--14",
    "Status": "Enabled",
    "Description": "L-101 @ 36.21"
  },
  {
    "Id": "4110--14",
    "Organization": "VOD",
    "RoadwayName": "L-101",
    "DirectionOfTravel": "Eastbound",
    "Latitude": 33.6545110660001,
    "Longitude": -111.908636273,
    "Name": "L-101 EB 35.54 @Hayden",
    "Url": "https://az511.com/map/Cctv/4110--14",
    "Status": "Enabled",
    "Description": "L-101 @ 35.54"
  },
  {
    "Id": "4111--14",
    "Organization": "VOD",
    "RoadwayName": "L-101",
    "DirectionOfTravel": "Westbound",
    "Latitude": 33.6585504390001,
    "Longitude": -111.926006981,
    "Name": "L-101 WB 34.48 @Scottsdale Rd",
    "Url": "https://az511.com/map/Cctv/4111--14",
    "Status": "Enabled",
    "Description": "L-101 @ 34.48"
  },
  {
    "Id": "4112--14",
    "Organization": "VOD",
    "RoadwayName": "L-101",
    "DirectionOfTravel": "Eastbound",
    "Latitude": 33.661484526,
    "Longitude": -111.943229899,
    "Name": "L-101 EB 33.47 @64th St.",
    "Url": "https://az511.com/map/Cctv/4112--14",
    "Status": "Enabled",
    "Description": "L-101 @ 33.47"
  },
  {
    "Id": "4113--14",
    "Organization": "VOD",
    "RoadwayName": "L-101",
    "DirectionOfTravel": "Westbound",
    "Latitude": 33.6683789310001,
    "Longitude": -111.960606115,
    "Name": "L-101 WB 32.37 @56th St.",
    "Url": "https://az511.com/map/Cctv/4113--14",
    "Status": "Enabled",
    "Description": "L-101 @ 32.37"
  },
  {
    "Id": "4114--14",
    "Organization": "VOD",
    "RoadwayName": "L-101",
    "DirectionOfTravel": "Westbound",
    "Latitude": 33.6731863050001,
    "Longitude": -111.976606454,
    "Name": "L-101 WB 31.36 @Tatum Blvd",
    "Url": "https://az511.com/map/Cctv/4114--14",
    "Status": "Enabled",
    "Description": "L-101 @ 31.36"
  },
  {
    "Id": "4115--14",
    "Organization": "VOD",
    "RoadwayName": "SR-51",
    "DirectionOfTravel": "Northbound",
    "Latitude": 33.668754731,
    "Longitude": -111.999409746,
    "Name": "SR-51 NB 15.76 @SR51/L101 Overpass",
    "Url": "https://az511.com/map/Cctv/4115--14",
    "Status": "Enabled",
    "Description": "SR-51 @ 15.76"
  },
  {
    "Id": "4116--14",
    "Organization": "VOD",
    "RoadwayName": "L-101",
    "DirectionOfTravel": "Eastbound",
    "Latitude": 33.6720315760001,
    "Longitude": -112.00369554,
    "Name": "L-101 EB 29.81 @W of SR51",
    "Url": "https://az511.com/map/Cctv/4116--14",
    "Status": "Enabled",
    "Description": "L-101 @ 29.81"
  },
  {
    "Id": "4117--14",
    "Organization": "VOD",
    "RoadwayName": "L-101",
    "DirectionOfTravel": "Westbound",
    "Latitude": 33.6724044810001,
    "Longitude": -112.031543068,
    "Name": "L-101 WB 28.19 @Cave Creek",
    "Url": "https://az511.com/map/Cctv/4117--14",
    "Status": "Enabled",
    "Description": "L-101 @ 28.19"
  },
  {
    "Id": "4118--14",
    "Organization": "VOD",
    "RoadwayName": "L-101",
    "DirectionOfTravel": "Eastbound",
    "Latitude": 33.6687695430001,
    "Longitude": -112.045144634,
    "Name": "L-101 EB 27.37 @E of 16th St.",
    "Url": "https://az511.com/map/Cctv/4118--14",
    "Status": "Enabled",
    "Description": "L-101 @ 27.37"
  },
  {
    "Id": "4119--14",
    "Organization": "VOD",
    "RoadwayName": "L-101",
    "DirectionOfTravel": "Westbound",
    "Latitude": 33.669166476,
    "Longitude": -112.065118814,
    "Name": "L-101 WB 26.16 @7th St.",
    "Url": "https://az511.com/map/Cctv/4119--14",
    "Status": "Enabled",
    "Description": "L-101 @ 26.16"
  },
  {
    "Id": "4120--14",
    "Organization": "VOD",
    "RoadwayName": "L-101",
    "DirectionOfTravel": "Westbound",
    "Latitude": 33.669053036,
    "Longitude": -112.083073664,
    "Name": "L-101 WB 25.17 @7th Ave",
    "Url": "https://az511.com/map/Cctv/4120--14",
    "Status": "Enabled",
    "Description": "L-101 @ 25.17"
  },
  {
    "Id": "4121--14",
    "Organization": "VOD",
    "RoadwayName": "L-101",
    "DirectionOfTravel": "Eastbound",
    "Latitude": 33.6690468370001,
    "Longitude": -112.100230053,
    "Name": "L-101 EB 24.15 @19th Ave",
    "Url": "https://az511.com/map/Cctv/4121--14",
    "Status": "Enabled",
    "Description": "L-101 @ 24.15"
  },
  {
    "Id": "4122--14",
    "Organization": "VOD",
    "RoadwayName": "L-101",
    "DirectionOfTravel": "Westbound",
    "Latitude": 33.6690976030001,
    "Longitude": -112.106697377,
    "Name": "L-101 WB 23.79 @E of I-17",
    "Url": "https://az511.com/map/Cctv/4122--14",
    "Status": "Enabled",
    "Description": "L-101 @ 23.79"
  },
  {
    "Id": "4123--14",
    "Organization": "VOD",
    "RoadwayName": "L-202",
    "DirectionOfTravel": "Eastbound",
    "Latitude": 33.437297066,
    "Longitude": -111.868837629,
    "Name": "L-202 EB 11.10 @Dobson Rd",
    "Url": "https://az511.com/map/Cctv/4123--14",
    "Status": "Enabled",
    "Description": "L-202 @ 11.1"
  },
  {
    "Id": "4124--14",
    "Organization": "VOD",
    "RoadwayName": "L-202",
    "DirectionOfTravel": "Westbound",
    "Latitude": 33.4457741790001,
    "Longitude": -111.857113964,
    "Name": "L-202 WB 12.01 @Alma School Rd",
    "Url": "https://az511.com/map/Cctv/4124--14",
    "Status": "Enabled",
    "Description": "L-202 @ 12.01"
  },
  {
    "Id": "4125--14",
    "Organization": "VOD",
    "RoadwayName": "L-202",
    "DirectionOfTravel": "Westbound",
    "Latitude": 33.452270577,
    "Longitude": -111.847714974,
    "Name": "L-202 WB 12.73 @McKellips Rd",
    "Url": "https://az511.com/map/Cctv/4125--14",
    "Status": "Enabled",
    "Description": "L-202 @ 12.73"
  },
  {
    "Id": "4126--14",
    "Organization": "VOD",
    "RoadwayName": "L-202",
    "DirectionOfTravel": "Eastbound",
    "Latitude": 33.454909715,
    "Longitude": -111.838814068,
    "Name": "L-202 EB 13.26 @Country Club Dr.",
    "Url": "https://az511.com/map/Cctv/4126--14",
    "Status": "Enabled",
    "Description": "L-202 @ 13.26"
  },
  {
    "Id": "4127--14",
    "Organization": "VOD",
    "RoadwayName": "L-202",
    "DirectionOfTravel": "Eastbound",
    "Latitude": 33.457976494,
    "Longitude": -111.830735322,
    "Name": "L-202 EB 13.80 @Center St.",
    "Url": "https://az511.com/map/Cctv/4127--14",
    "Status": "Enabled",
    "Description": "L-202 @ 13.8"
  },
  {
    "Id": "4128--14",
    "Organization": "VOD",
    "RoadwayName": "L-202",
    "DirectionOfTravel": "Westbound",
    "Latitude": 33.4659850900001,
    "Longitude": -111.822624101,
    "Name": "L-202 WB 14.52 @Mesa Dr.",
    "Url": "https://az511.com/map/Cctv/4128--14",
    "Status": "Enabled",
    "Description": "L-202 @ 14.52"
  },
  {
    "Id": "4129--14",
    "Organization": "VOD",
    "RoadwayName": "L-202",
    "DirectionOfTravel": "Eastbound",
    "Latitude": 33.4655358850001,
    "Longitude": -111.80518376,
    "Name": "L-202 EB 15.54 @Stapley Dr.",
    "Url": "https://az511.com/map/Cctv/4129--14",
    "Status": "Enabled",
    "Description": "L-202 @ 15.54"
  },
  {
    "Id": "4130--14",
    "Organization": "VOD",
    "RoadwayName": "L-202",
    "DirectionOfTravel": "Eastbound",
    "Latitude": 33.4650632280001,
    "Longitude": -111.786879025,
    "Name": "L-202 EB 16.58 @Gilbert Rd",
    "Url": "https://az511.com/map/Cctv/4130--14",
    "Status": "Enabled",
    "Description": "L-202 @ 16.58"
  },
  {
    "Id": "4131--14",
    "Organization": "VOD",
    "RoadwayName": "I-17",
    "DirectionOfTravel": "Northbound",
    "Latitude": 33.610585083,
    "Longitude": -112.1163971,
    "Name": "I-17 NB 210.92 @Thunderbird",
    "Url": "https://az511.com/map/Cctv/4131--14",
    "Status": "Enabled",
    "Description": "I-17 @ 210.92"
  },
  {
    "Id": "4132--14",
    "Organization": "VOD",
    "RoadwayName": "I-17",
    "DirectionOfTravel": "Northbound",
    "Latitude": 33.625559111,
    "Longitude": -112.116161414,
    "Name": "I-17 NB 211.94 @Greenway",
    "Url": "https://az511.com/map/Cctv/4132--14",
    "Status": "Enabled",
    "Description": "I-17 @ 211.94"
  },
  {
    "Id": "4133--14",
    "Organization": "VOD",
    "RoadwayName": "I-17",
    "DirectionOfTravel": "Northbound",
    "Latitude": 33.639565641,
    "Longitude": -112.11538539,
    "Name": "I-17 NB 212.92 @Bell",
    "Url": "https://az511.com/map/Cctv/4133--14",
    "Status": "Enabled",
    "Description": "I-17 @ 212.92"
  },
  {
    "Id": "4134--14",
    "Organization": "VOD",
    "RoadwayName": "I-17",
    "DirectionOfTravel": "Northbound",
    "Latitude": 33.6549455570001,
    "Longitude": -112.114098427,
    "Name": "I-17 NB 213.98 @Union Hills",
    "Url": "https://az511.com/map/Cctv/4134--14",
    "Status": "Enabled",
    "Description": "I-17 @ 213.98"
  },
  {
    "Id": "4135--14",
    "Organization": "VOD",
    "RoadwayName": "I-17",
    "DirectionOfTravel": "Northbound",
    "Latitude": 33.662262696,
    "Longitude": -112.113475679,
    "Name": "I-17 NB 214.50 @S of L101",
    "Url": "https://az511.com/map/Cctv/4135--14",
    "Status": "Enabled",
    "Description": "I-17 @ 214.5"
  },
  {
    "Id": "4136--14",
    "Organization": "VOD",
    "RoadwayName": "I-17",
    "DirectionOfTravel": "Northbound",
    "Latitude": 33.5967993040001,
    "Longitude": -112.116438806,
    "Name": "I-17 NB 209.96 @Cactus",
    "Url": "https://az511.com/map/Cctv/4136--14",
    "Status": "Enabled",
    "Description": "I-17 @ 209.96"
  },
  {
    "Id": "4137--14",
    "Organization": "VOD",
    "RoadwayName": "I-17",
    "DirectionOfTravel": "Northbound",
    "Latitude": 33.5823430180001,
    "Longitude": -112.116571305,
    "Name": "I-17 NB 208.94 @Peoria",
    "Url": "https://az511.com/map/Cctv/4137--14",
    "Status": "Enabled",
    "Description": "I-17 @ 208.94"
  },
  {
    "Id": "4138--14",
    "Organization": "VOD",
    "RoadwayName": "SR-51",
    "DirectionOfTravel": "Northbound",
    "Latitude": 33.6557884110001,
    "Longitude": -111.999603282,
    "Name": "SR-51 NB 14.66 @Union Hills",
    "Url": "https://az511.com/map/Cctv/4138--14",
    "Status": "Enabled",
    "Description": "SR-51 @ 14.66"
  },
  {
    "Id": "4139--14",
    "Organization": "VOD",
    "RoadwayName": "SR-51",
    "DirectionOfTravel": "Northbound",
    "Latitude": 33.647308787,
    "Longitude": -112.000508014,
    "Name": "SR-51 NB 14.07 @N of Bell",
    "Url": "https://az511.com/map/Cctv/4139--14",
    "Status": "Enabled",
    "Description": "SR-51 @ 14.07"
  },
  {
    "Id": "4140--14",
    "Organization": "VOD",
    "RoadwayName": "SR-51",
    "DirectionOfTravel": "Northbound",
    "Latitude": 33.6400808000001,
    "Longitude": -112.002648771,
    "Name": "SR-51 NB 13.56 @Bell",
    "Url": "https://az511.com/map/Cctv/4140--14",
    "Status": "Enabled",
    "Description": "SR-51 @ 13.56"
  },
  {
    "Id": "4141--14",
    "Organization": "VOD",
    "RoadwayName": "SR-143",
    "DirectionOfTravel": "Northbound",
    "Latitude": 33.436282626,
    "Longitude": -111.978664288,
    "Name": "SR-143 NB 1.68 @Sky Harbor",
    "Url": "https://az511.com/map/Cctv/4141--14",
    "Status": "Enabled",
    "Description": "SR-143 @ 1.68"
  },
  {
    "Id": "4142--14",
    "Organization": "VOD",
    "RoadwayName": "I-10",
    "DirectionOfTravel": "    ",
    "Latitude": 33.462489831,
    "Longitude": -112.229292213,
    "Name": "I-10 M 136.18 @E of 83rd Ave",
    "Url": "https://az511.com/map/Cctv/4142--14",
    "Status": "Enabled",
    "Description": "I-10 @ 136.18"
  },
  {
    "Id": "4143--14",
    "Organization": "VOD",
    "RoadwayName": "I-10",
    "DirectionOfTravel": "Eastbound",
    "Latitude": 33.4622460300001,
    "Longitude": -112.1952825,
    "Name": "I-10 EB 138.14 @E of 67th Ave",
    "Url": "https://az511.com/map/Cctv/4143--14",
    "Status": "Enabled",
    "Description": "I-10 @ 138.14"
  },
  {
    "Id": "4144--14",
    "Organization": "VOD",
    "RoadwayName": "I-10",
    "DirectionOfTravel": "Eastbound",
    "Latitude": 33.462304062,
    "Longitude": -112.210948683,
    "Name": "I-10 EB 137.24 @E of 75th Ave",
    "Url": "https://az511.com/map/Cctv/4144--14",
    "Status": "Enabled",
    "Description": "I-10 @ 137.24"
  },
  {
    "Id": "4145--14",
    "Organization": "VOD",
    "RoadwayName": "I-10",
    "DirectionOfTravel": "Eastbound",
    "Latitude": 33.461428584,
    "Longitude": -112.143271799,
    "Name": "I-10 EB 141.17 @E of 43rd Ave",
    "Url": "https://az511.com/map/Cctv/4145--14",
    "Status": "Enabled",
    "Description": "I-10 @ 141.17"
  },
  {
    "Id": "4146--14",
    "Organization": "VOD",
    "RoadwayName": "I-10",
    "DirectionOfTravel": "Eastbound",
    "Latitude": 33.4616245350001,
    "Longitude": -112.126058469,
    "Name": "I-10 EB 142.16 @E of 35th Ave",
    "Url": "https://az511.com/map/Cctv/4146--14",
    "Status": "Enabled",
    "Description": "I-10 @ 142.16"
  },
  {
    "Id": "4147--14",
    "Organization": "VOD",
    "RoadwayName": "I-10",
    "DirectionOfTravel": "    ",
    "Latitude": 33.4618825380001,
    "Longitude": -112.114460147,
    "Name": "I-10 M 142.84 @E of 27th Ave",
    "Url": "https://az511.com/map/Cctv/4147--14",
    "Status": "Enabled",
    "Description": "I-10 @ 142.84"
  },
  {
    "Id": "4148--14",
    "Organization": "VOD",
    "RoadwayName": "I-17",
    "DirectionOfTravel": "Southbound",
    "Latitude": 33.42667264,
    "Longitude": -112.036920756,
    "Name": "I-17 SB 194.29 @I-10 Split",
    "Url": "https://az511.com/map/Cctv/4148--14",
    "Status": "Enabled",
    "Description": "I-17 @ 194.29"
  },
  {
    "Id": "4149--14",
    "Organization": "VOD",
    "RoadwayName": "I-10",
    "DirectionOfTravel": "    ",
    "Latitude": 33.461802171,
    "Longitude": -112.099220629,
    "Name": "I-10 M 143.73 @19th Ave",
    "Url": "https://az511.com/map/Cctv/4149--14",
    "Status": "Enabled",
    "Description": "I-10 @ 143.73"
  },
  {
    "Id": "4150--14",
    "Organization": "VOD",
    "RoadwayName": "I-10",
    "DirectionOfTravel": "Eastbound",
    "Latitude": 33.4606384310001,
    "Longitude": -112.086049853,
    "Name": "I-10 EB 144.44 @W of 7th Ave",
    "Url": "https://az511.com/map/Cctv/4150--14",
    "Status": "Enabled",
    "Description": "I-10 @ 144.44"
  },
  {
    "Id": "4151--14",
    "Organization": "VOD",
    "RoadwayName": "I-10",
    "DirectionOfTravel": "    ",
    "Latitude": 33.4624245700001,
    "Longitude": -112.065420641,
    "Name": "I-10 M 145.67 @7th St",
    "Url": "https://az511.com/map/Cctv/4151--14",
    "Status": "Enabled",
    "Description": "I-10 @ 145.67"
  },
  {
    "Id": "4152--14",
    "Organization": "VOD",
    "RoadwayName": "I-10",
    "DirectionOfTravel": "Westbound",
    "Latitude": 33.4624826100001,
    "Longitude": -112.052878096,
    "Name": "I-10 WB 146.40 @W of 16th St",
    "Url": "https://az511.com/map/Cctv/4152--14",
    "Status": "Enabled",
    "Description": "I-10 @ 146.4"
  },
  {
    "Id": "4153--14",
    "Organization": "VOD",
    "RoadwayName": "I-10",
    "DirectionOfTravel": "    ",
    "Latitude": 33.4616362140001,
    "Longitude": -112.037577801,
    "Name": "I-10 M 147.26 @Mini-Stack N",
    "Url": "https://az511.com/map/Cctv/4153--14",
    "Status": "Enabled",
    "Description": "I-10 @ 147.26"
  },
  {
    "Id": "4154--14",
    "Organization": "VOD",
    "RoadwayName": "I-10",
    "DirectionOfTravel": "Westbound",
    "Latitude": 33.4518318570001,
    "Longitude": -112.036878936,
    "Name": "I-10 WB 147.91 @Van Buren",
    "Url": "https://az511.com/map/Cctv/4154--14",
    "Status": "Enabled",
    "Description": "I-10 @ 147.91"
  },
  {
    "Id": "4156--14",
    "Organization": "VOD",
    "RoadwayName": "SR-51",
    "DirectionOfTravel": "Northbound",
    "Latitude": 33.4723883520001,
    "Longitude": -112.038313872,
    "Name": "SR-51 NB 1.00 @N of McDowell",
    "Url": "https://az511.com/map/Cctv/4156--14",
    "Status": "Enabled",
    "Description": "SR-51 @ 1.0"
  },
  {
    "Id": "4157--14",
    "Organization": "VOD",
    "RoadwayName": "SR-51",
    "DirectionOfTravel": "Northbound",
    "Latitude": 33.4886875730001,
    "Longitude": -112.04244112,
    "Name": "SR-51 NB 2.18 @N of Thomas",
    "Url": "https://az511.com/map/Cctv/4157--14",
    "Status": "Enabled",
    "Description": "SR-51 @ 2.18"
  },
  {
    "Id": "4158--14",
    "Organization": "VOD",
    "RoadwayName": "SR-51",
    "DirectionOfTravel": "Northbound",
    "Latitude": 33.50163115,
    "Longitude": -112.043372722,
    "Name": "SR-51 NB 3.09 @S of Highland",
    "Url": "https://az511.com/map/Cctv/4158--14",
    "Status": "Enabled",
    "Description": "SR-51 @ 3.09"
  },
  {
    "Id": "4159--14",
    "Organization": "VOD",
    "RoadwayName": "SR-51",
    "DirectionOfTravel": "Southbound",
    "Latitude": 33.5122921340001,
    "Longitude": -112.044623441,
    "Name": "SR-51 SB 3.83 @Colter St",
    "Url": "https://az511.com/map/Cctv/4159--14",
    "Status": "Enabled",
    "Description": "SR-51 @ 3.83"
  },
  {
    "Id": "4160--14",
    "Organization": "VOD",
    "RoadwayName": "SR-51",
    "DirectionOfTravel": "Southbound",
    "Latitude": 33.521738192,
    "Longitude": -112.044374341,
    "Name": "SR-51 SB 4.48 @Bethany Home",
    "Url": "https://az511.com/map/Cctv/4160--14",
    "Status": "Enabled",
    "Description": "SR-51 @ 4.48"
  },
  {
    "Id": "4161--14",
    "Organization": "VOD",
    "RoadwayName": "SR-51",
    "DirectionOfTravel": "Southbound",
    "Latitude": 33.531375891,
    "Longitude": -112.043425465,
    "Name": "SR-51 SB 5.14 @S of Glendale",
    "Url": "https://az511.com/map/Cctv/4161--14",
    "Status": "Enabled",
    "Description": "SR-51 @ 5.14"
  },
  {
    "Id": "4162--14",
    "Organization": "VOD",
    "RoadwayName": "SR-51",
    "DirectionOfTravel": "Southbound",
    "Latitude": 33.541234542,
    "Longitude": -112.041538978,
    "Name": "SR-51 SB 5.82 @N of Glendale",
    "Url": "https://az511.com/map/Cctv/4162--14",
    "Status": "Enabled",
    "Description": "SR-51 @ 5.82"
  },
  {
    "Id": "4163--14",
    "Organization": "VOD",
    "RoadwayName": "L-202",
    "DirectionOfTravel": "Westbound",
    "Latitude": 33.4623677180001,
    "Longitude": -112.021257202,
    "Name": "L-202 WB 0.29 @E of 24th St",
    "Url": "https://az511.com/map/Cctv/4163--14",
    "Status": "Enabled",
    "Description": "L-202 @ 0.29"
  },
  {
    "Id": "4164--14",
    "Organization": "VOD",
    "RoadwayName": "L-202",
    "DirectionOfTravel": "Westbound",
    "Latitude": 33.4592821890001,
    "Longitude": -112.005355166,
    "Name": "L-202 WB 1.28 @E of 32nd St",
    "Url": "https://az511.com/map/Cctv/4164--14",
    "Status": "Enabled",
    "Description": "L-202 @ 1.28"
  },
  {
    "Id": "4165--14",
    "Organization": "VOD",
    "RoadwayName": "SR-143",
    "DirectionOfTravel": "Northbound",
    "Latitude": 33.418307418,
    "Longitude": -111.977817142,
    "Name": "SR-143 NB 0.51 @University",
    "Url": "https://az511.com/map/Cctv/4165--14",
    "Status": "Enabled",
    "Description": "SR-143 @ 0.51"
  },
  {
    "Id": "4166--14",
    "Organization": "VOD",
    "RoadwayName": "SR-143",
    "DirectionOfTravel": "Northbound",
    "Latitude": 33.431238896,
    "Longitude": -111.977972921,
    "Name": "SR-143 NB 1.41 @N of University",
    "Url": "https://az511.com/map/Cctv/4166--14",
    "Status": "Enabled",
    "Description": "SR-143 @ 1.41"
  },
  {
    "Id": "4167--14",
    "Organization": "VOD",
    "RoadwayName": "SR-143",
    "DirectionOfTravel": "Southbound",
    "Latitude": 33.445084036,
    "Longitude": -111.981449948,
    "Name": "SR-143 SB 2.38 @Washington",
    "Url": "https://az511.com/map/Cctv/4167--14",
    "Status": "Enabled",
    "Description": "SR-143 @ 2.38"
  },
  {
    "Id": "4168--14",
    "Organization": "VOD",
    "RoadwayName": "SR-143",
    "DirectionOfTravel": "Southbound",
    "Latitude": 33.4584410320001,
    "Longitude": -111.983389884,
    "Name": "SR-143 SB 3.32 @L202",
    "Url": "https://az511.com/map/Cctv/4168--14",
    "Status": "Enabled",
    "Description": "SR-143 @ 3.32"
  },
  {
    "Id": "4169--14",
    "Organization": "VOD",
    "RoadwayName": "I-17",
    "DirectionOfTravel": "Southbound",
    "Latitude": 33.428100106,
    "Longitude": -112.05685826,
    "Name": "I-17 SB 195.45 @S of 7th St",
    "Url": "https://az511.com/map/Cctv/4169--14",
    "Status": "Enabled",
    "Description": "I-17 @ 195.45"
  },
  {
    "Id": "4170--14",
    "Organization": "VOD",
    "RoadwayName": "I-17",
    "DirectionOfTravel": "Southbound",
    "Latitude": 33.428318991,
    "Longitude": -112.073422613,
    "Name": "I-17 SB 196.41 @S of 7th Ave",
    "Url": "https://az511.com/map/Cctv/4170--14",
    "Status": "Enabled",
    "Description": "I-17 @ 196.41"
  },
  {
    "Id": "4171--14",
    "Organization": "VOD",
    "RoadwayName": "I-17",
    "DirectionOfTravel": "Southbound",
    "Latitude": 33.429477788,
    "Longitude": -112.09068528,
    "Name": "I-17 SB 197.42 @S of 19th Ave",
    "Url": "https://az511.com/map/Cctv/4171--14",
    "Status": "Enabled",
    "Description": "I-17 @ 197.42"
  },
  {
    "Id": "4172--14",
    "Organization": "VOD",
    "RoadwayName": "I-17",
    "DirectionOfTravel": "Southbound",
    "Latitude": 33.430795978,
    "Longitude": -112.10744997,
    "Name": "I-17 SB 198.43 @Durango Curve",
    "Url": "https://az511.com/map/Cctv/4172--14",
    "Status": "Enabled",
    "Description": "I-17 @ 198.43"
  },
  {
    "Id": "4173--14",
    "Organization": "VOD",
    "RoadwayName": "I-17",
    "DirectionOfTravel": "Northbound",
    "Latitude": 33.441619621,
    "Longitude": -112.107877835,
    "Name": "I-17 NB 199.18 @Grant",
    "Url": "https://az511.com/map/Cctv/4173--14",
    "Status": "Enabled",
    "Description": "I-17 @ 199.18"
  },
  {
    "Id": "4174--14",
    "Organization": "VOD",
    "RoadwayName": "I-17",
    "DirectionOfTravel": "    ",
    "Latitude": 33.454516649,
    "Longitude": -112.1077914,
    "Name": "I-17 M 200.08 @Van Buren",
    "Url": "https://az511.com/map/Cctv/4174--14",
    "Status": "Enabled",
    "Description": "I-17 @ 200.08"
  },
  {
    "Id": "4175--14",
    "Organization": "VOD",
    "RoadwayName": "I-17",
    "DirectionOfTravel": "Southbound",
    "Latitude": 33.462471796,
    "Longitude": -112.108845968,
    "Name": "I-17 SB 200.65 @I-10 Stack",
    "Url": "https://az511.com/map/Cctv/4175--14",
    "Status": "Enabled",
    "Description": "I-17 @ 200.65"
  },
  {
    "Id": "4176--14",
    "Organization": "VOD",
    "RoadwayName": "I-17",
    "DirectionOfTravel": "    ",
    "Latitude": 33.4668679660001,
    "Longitude": -112.110300987,
    "Name": "I-17 M 200.94 @N of McDowell",
    "Url": "https://az511.com/map/Cctv/4176--14",
    "Status": "Enabled",
    "Description": "I-17 @ 200.94"
  },
  {
    "Id": "4177--14",
    "Organization": "VOD",
    "RoadwayName": "I-10",
    "DirectionOfTravel": "Westbound",
    "Latitude": 33.3990338990001,
    "Longitude": -111.967154988,
    "Name": "I-10 WB 154.60 @Southern",
    "Url": "https://az511.com/map/Cctv/4177--14",
    "Status": "Enabled",
    "Description": "I-10 @ 154.6"
  },
  {
    "Id": "4178--14",
    "Organization": "VOD",
    "RoadwayName": "I-10",
    "DirectionOfTravel": "Eastbound",
    "Latitude": 33.3851748980001,
    "Longitude": -111.968294032,
    "Name": "I-10 EB 155.55 @E of US-60",
    "Url": "https://az511.com/map/Cctv/4178--14",
    "Status": "Enabled",
    "Description": "I-10 @ 155.55"
  },
  {
    "Id": "4179--14",
    "Organization": "VOD",
    "RoadwayName": "I-10",
    "DirectionOfTravel": "Westbound",
    "Latitude": 33.3725451330001,
    "Longitude": -111.96771395,
    "Name": "I-10 WB 156.41 @E of Baseline",
    "Url": "https://az511.com/map/Cctv/4179--14",
    "Status": "Enabled",
    "Description": "I-10 @ 156.41"
  },
  {
    "Id": "4180--14",
    "Organization": "VOD",
    "RoadwayName": "I-10",
    "DirectionOfTravel": "Eastbound",
    "Latitude": 33.357912077,
    "Longitude": -111.970385903,
    "Name": "I-10 EB 157.20 @W of Elliot",
    "Url": "https://az511.com/map/Cctv/4180--14",
    "Status": "Enabled",
    "Description": "I-10 @ 157.2"
  },
  {
    "Id": "4181--14",
    "Organization": "VOD",
    "RoadwayName": "I-10",
    "DirectionOfTravel": "Eastbound",
    "Latitude": 33.341416048,
    "Longitude": -111.972607147,
    "Name": "I-10 EB 158.32 @W of Warner",
    "Url": "https://az511.com/map/Cctv/4181--14",
    "Status": "Enabled",
    "Description": "I-10 @ 158.32"
  },
  {
    "Id": "4182--14",
    "Organization": "VOD",
    "RoadwayName": "I-10",
    "DirectionOfTravel": "Eastbound",
    "Latitude": 33.32616906,
    "Longitude": -111.972642005,
    "Name": "I-10 EB 159.34 @W of Ray",
    "Url": "https://az511.com/map/Cctv/4182--14",
    "Status": "Enabled",
    "Description": "I-10 @ 159.34"
  },
  {
    "Id": "4183--14",
    "Organization": "VOD",
    "RoadwayName": "I-10",
    "DirectionOfTravel": "Eastbound",
    "Latitude": 33.3121170530001,
    "Longitude": -111.972670712,
    "Name": "I-10 EB 160.12 @W of Chandler",
    "Url": "https://az511.com/map/Cctv/4183--14",
    "Status": "Enabled",
    "Description": "I-10 @ 160.12"
  },
  {
    "Id": "4184--14",
    "Organization": "VOD",
    "RoadwayName": "L-101",
    "DirectionOfTravel": "Northbound",
    "Latitude": 33.397808303,
    "Longitude": -111.890662012,
    "Name": "L-101 NB 54.23 @N of Southern",
    "Url": "https://az511.com/map/Cctv/4184--14",
    "Status": "Enabled",
    "Description": "L-101 @ 54.23"
  },
  {
    "Id": "4185--14",
    "Organization": "VOD",
    "RoadwayName": "L-202",
    "DirectionOfTravel": "Westbound",
    "Latitude": 33.4526696670001,
    "Longitude": -111.969202944,
    "Name": "L-202 WB 4.41 @E of 52nd St",
    "Url": "https://az511.com/map/Cctv/4185--14",
    "Status": "Enabled",
    "Description": "L-202 @ 4.41"
  },
  {
    "Id": "4186--14",
    "Organization": "VOD",
    "RoadwayName": "L-202",
    "DirectionOfTravel": "Eastbound",
    "Latitude": 33.440374343,
    "Longitude": -111.967878844,
    "Name": "L-202 EB 5.26 @E of Van Buren",
    "Url": "https://az511.com/map/Cctv/4186--14",
    "Status": "Enabled",
    "Description": "L-202 @ 5.26"
  },
  {
    "Id": "4187--14",
    "Organization": "VOD",
    "RoadwayName": "L-202",
    "DirectionOfTravel": "Westbound",
    "Latitude": 33.4379986770001,
    "Longitude": -111.960211737,
    "Name": "L-202 WB 5.75 @Priest",
    "Url": "https://az511.com/map/Cctv/4187--14",
    "Status": "Enabled",
    "Description": "L-202 @ 5.75"
  },
  {
    "Id": "4188--14",
    "Organization": "VOD",
    "RoadwayName": "L-202",
    "DirectionOfTravel": "Westbound",
    "Latitude": 33.4357372920001,
    "Longitude": -111.940891687,
    "Name": "L-202 WB 6.87 @E of Center",
    "Url": "https://az511.com/map/Cctv/4188--14",
    "Status": "Enabled",
    "Description": "L-202 @ 6.87"
  },
  {
    "Id": "4189--14",
    "Organization": "VOD",
    "RoadwayName": "L-202",
    "DirectionOfTravel": "Westbound",
    "Latitude": 33.436336714,
    "Longitude": -111.925015291,
    "Name": "L-202 WB 7.80 @Scottsdale",
    "Url": "https://az511.com/map/Cctv/4189--14",
    "Status": "Enabled",
    "Description": "L-202 @ 7.8"
  },
  {
    "Id": "4190--14",
    "Organization": "VOD",
    "RoadwayName": "L-202",
    "DirectionOfTravel": "Westbound",
    "Latitude": 33.4362817520001,
    "Longitude": -111.912371934,
    "Name": "L-202 WB 8.54 @McClintock",
    "Url": "https://az511.com/map/Cctv/4190--14",
    "Status": "Enabled",
    "Description": "L-202 @ 8.54"
  },
  {
    "Id": "4191--14",
    "Organization": "VOD",
    "RoadwayName": "L-202",
    "DirectionOfTravel": "Westbound",
    "Latitude": 33.436153877,
    "Longitude": -111.900029072,
    "Name": "L-202 WB 9.26 @E of McClintock",
    "Url": "https://az511.com/map/Cctv/4191--14",
    "Status": "Enabled",
    "Description": "L-202 @ 9.26"
  },
  {
    "Id": "4192--14",
    "Organization": "VOD",
    "RoadwayName": "L-101",
    "DirectionOfTravel": "Northbound",
    "Latitude": 33.4333235350001,
    "Longitude": -111.89061236,
    "Name": "L-101 NB 51.78 @L202 Red Mountain",
    "Url": "https://az511.com/map/Cctv/4192--14",
    "Status": "Enabled",
    "Description": "L-101 @ 51.78"
  },
  {
    "Id": "4193--14",
    "Organization": "VOD",
    "RoadwayName": "L-101",
    "DirectionOfTravel": "Northbound",
    "Latitude": 33.420848849,
    "Longitude": -111.890959251,
    "Name": "L-101 NB 52.65 @University",
    "Url": "https://az511.com/map/Cctv/4193--14",
    "Status": "Enabled",
    "Description": "L-101 @ 52.65"
  },
  {
    "Id": "4194--14",
    "Organization": "VOD",
    "RoadwayName": "L-101",
    "DirectionOfTravel": "Northbound",
    "Latitude": 33.408765685,
    "Longitude": -111.890845926,
    "Name": "L-101 NB 53.49 @Broadway",
    "Url": "https://az511.com/map/Cctv/4194--14",
    "Status": "Enabled",
    "Description": "L-101 @ 53.49"
  },
  {
    "Id": "4195--14",
    "Organization": "VOD",
    "RoadwayName": "SR-51",
    "DirectionOfTravel": "Northbound",
    "Latitude": 33.553666337,
    "Longitude": -112.037504162,
    "Name": "SR-51 NB 6.71 @S of Northern",
    "Url": "https://az511.com/map/Cctv/4195--14",
    "Status": "Enabled",
    "Description": "SR-51 @ 6.71"
  },
  {
    "Id": "4196--14",
    "Organization": "VOD",
    "RoadwayName": "SR-51",
    "DirectionOfTravel": "Southbound",
    "Latitude": 33.5634628830001,
    "Longitude": -112.036725743,
    "Name": "SR-51 SB 7.41 @N of Northern",
    "Url": "https://az511.com/map/Cctv/4196--14",
    "Status": "Enabled",
    "Description": "SR-51 @ 7.41"
  },
  {
    "Id": "4197--14",
    "Organization": "VOD",
    "RoadwayName": "SR-51",
    "DirectionOfTravel": "Southbound",
    "Latitude": 33.5716815110001,
    "Longitude": -112.024420572,
    "Name": "SR-51 SB 8.33 @S of 32nd St",
    "Url": "https://az511.com/map/Cctv/4197--14",
    "Status": "Enabled",
    "Description": "SR-51 @ 8.33"
  },
  {
    "Id": "4198--14",
    "Organization": "VOD",
    "RoadwayName": "SR-51",
    "DirectionOfTravel": "Northbound",
    "Latitude": 33.576944327,
    "Longitude": -112.01213643,
    "Name": "SR-51 NB 9.13 @S of Shea",
    "Url": "https://az511.com/map/Cctv/4198--14",
    "Status": "Enabled",
    "Description": "SR-51 @ 9.13"
  },
  {
    "Id": "4199--14",
    "Organization": "VOD",
    "RoadwayName": "SR-51",
    "DirectionOfTravel": "Northbound",
    "Latitude": 33.590743633,
    "Longitude": -112.00909094,
    "Name": "SR-51 NB 10.09 @S of Cactus",
    "Url": "https://az511.com/map/Cctv/4199--14",
    "Status": "Enabled",
    "Description": "SR-51 @ 10.09"
  },
  {
    "Id": "4200--14",
    "Organization": "VOD",
    "RoadwayName": "SR-51",
    "DirectionOfTravel": "Northbound",
    "Latitude": 33.604898828,
    "Longitude": -112.00920457,
    "Name": "SR-51 NB 11.06 @S of Thunderbird",
    "Url": "https://az511.com/map/Cctv/4200--14",
    "Status": "Enabled",
    "Description": "SR-51 @ 11.06"
  },
  {
    "Id": "4201--14",
    "Organization": "VOD",
    "RoadwayName": "SR-51",
    "DirectionOfTravel": "Southbound",
    "Latitude": 33.6195100570001,
    "Longitude": -112.009698282,
    "Name": "SR-51 SB 12.06 @S of Greenway",
    "Url": "https://az511.com/map/Cctv/4201--14",
    "Status": "Enabled",
    "Description": "SR-51 @ 12.06"
  },
  {
    "Id": "4202--14",
    "Organization": "VOD",
    "RoadwayName": "SR-51",
    "DirectionOfTravel": "Northbound",
    "Latitude": 33.6330040020001,
    "Longitude": -112.003856862,
    "Name": "SR-51 NB 13.06 @S of Bell",
    "Url": "https://az511.com/map/Cctv/4202--14",
    "Status": "Enabled",
    "Description": "SR-51 @ 13.06"
  },
  {
    "Id": "4203--14",
    "Organization": "VOD",
    "RoadwayName": "I-17",
    "DirectionOfTravel": "Northbound",
    "Latitude": 33.487388594,
    "Longitude": -112.112762515,
    "Name": "I-17 NB 202.31 @S of Indian School",
    "Url": "https://az511.com/map/Cctv/4203--14",
    "Status": "Enabled",
    "Description": "I-17 @ 202.31"
  },
  {
    "Id": "4204--14",
    "Organization": "VOD",
    "RoadwayName": "I-17",
    "DirectionOfTravel": "Northbound",
    "Latitude": 33.502449042,
    "Longitude": -112.112506705,
    "Name": "I-17 NB 203.38 @S of Camelback",
    "Url": "https://az511.com/map/Cctv/4204--14",
    "Status": "Enabled",
    "Description": "I-17 @ 203.38"
  },
  {
    "Id": "4205--14",
    "Organization": "VOD",
    "RoadwayName": "I-17",
    "DirectionOfTravel": "Northbound",
    "Latitude": 33.516454493,
    "Longitude": -112.11202258,
    "Name": "I-17 NB 204.36 @S of Bethany Home",
    "Url": "https://az511.com/map/Cctv/4205--14",
    "Status": "Enabled",
    "Description": "I-17 @ 204.36"
  },
  {
    "Id": "4206--14",
    "Organization": "VOD",
    "RoadwayName": "I-17",
    "DirectionOfTravel": "Northbound",
    "Latitude": 33.5307831910001,
    "Longitude": -112.112007036,
    "Name": "I-17 NB 205.35 @S of Glendale",
    "Url": "https://az511.com/map/Cctv/4206--14",
    "Status": "Enabled",
    "Description": "I-17 @ 205.35"
  },
  {
    "Id": "4207--14",
    "Organization": "VOD",
    "RoadwayName": "I-17",
    "DirectionOfTravel": "Southbound",
    "Latitude": 33.538808273,
    "Longitude": -112.112760397,
    "Name": "I-17 SB 205.89 @Glendale",
    "Url": "https://az511.com/map/Cctv/4207--14",
    "Status": "Enabled",
    "Description": "I-17 @ 205.89"
  },
  {
    "Id": "4208--14",
    "Organization": "VOD",
    "RoadwayName": "I-17",
    "DirectionOfTravel": "Northbound",
    "Latitude": 33.5460110430001,
    "Longitude": -112.112070989,
    "Name": "I-17 NB 206.36 @S of Northern",
    "Url": "https://az511.com/map/Cctv/4208--14",
    "Status": "Enabled",
    "Description": "I-17 @ 206.36"
  },
  {
    "Id": "4209--14",
    "Organization": "VOD",
    "RoadwayName": "I-17",
    "DirectionOfTravel": "Northbound",
    "Latitude": 33.557236285,
    "Longitude": -112.112690082,
    "Name": "I-17 NB 207.10 @N of Northern",
    "Url": "https://az511.com/map/Cctv/4209--14",
    "Status": "Enabled",
    "Description": "I-17 @ 207.1"
  },
  {
    "Id": "4210--14",
    "Organization": "VOD",
    "RoadwayName": "I-17",
    "DirectionOfTravel": "Southbound",
    "Latitude": 33.5652771200001,
    "Longitude": -112.117160797,
    "Name": "I-17 SB 207.78 @Dunlap",
    "Url": "https://az511.com/map/Cctv/4210--14",
    "Status": "Enabled",
    "Description": "I-17 @ 207.78"
  },
  {
    "Id": "4211--14",
    "Organization": "VOD",
    "RoadwayName": "I-17",
    "DirectionOfTravel": "Southbound",
    "Latitude": 33.5773586920001,
    "Longitude": -112.117316276,
    "Name": "I-17 SB 208.50 @S of Peoria",
    "Url": "https://az511.com/map/Cctv/4211--14",
    "Status": "Enabled",
    "Description": "I-17 @ 208.5"
  },
  {
    "Id": "4212--14",
    "Organization": "VOD",
    "RoadwayName": "I-10",
    "DirectionOfTravel": "Eastbound",
    "Latitude": 33.420473789,
    "Longitude": -112.019899276,
    "Name": "I-10 EB 150.69 @Salt River Bridge",
    "Url": "https://az511.com/map/Cctv/4212--14",
    "Status": "Enabled",
    "Description": "I-10 @ 150.69"
  },
  {
    "Id": "4213--14",
    "Organization": "VOD",
    "RoadwayName": "I-10",
    "DirectionOfTravel": "Westbound",
    "Latitude": 33.4112241510001,
    "Longitude": -112.005570602,
    "Name": "I-10 WB 151.75 @E of 32nd St",
    "Url": "https://az511.com/map/Cctv/4213--14",
    "Status": "Enabled",
    "Description": "I-10 @ 151.75"
  },
  {
    "Id": "4214--14",
    "Organization": "VOD",
    "RoadwayName": "I-10",
    "DirectionOfTravel": "Westbound",
    "Latitude": 33.411301392,
    "Longitude": -111.986323743,
    "Name": "I-10 WB 152.73 @E of 40th St",
    "Url": "https://az511.com/map/Cctv/4214--14",
    "Status": "Enabled",
    "Description": "I-10 @ 152.73"
  },
  {
    "Id": "4215--14",
    "Organization": "VOD",
    "RoadwayName": "I-10",
    "DirectionOfTravel": "Westbound",
    "Latitude": 33.411239193,
    "Longitude": -111.977535698,
    "Name": "I-10 WB 153.54 @48th St/SR-143",
    "Url": "https://az511.com/map/Cctv/4215--14",
    "Status": "Enabled",
    "Description": "I-10 @ 153.54"
  },
  {
    "Id": "4216--14",
    "Organization": "VOD",
    "RoadwayName": "I-17",
    "DirectionOfTravel": "Southbound",
    "Latitude": 33.475081317,
    "Longitude": -112.113566569,
    "Name": "I-17 SB 201.39 @S of Thomas",
    "Url": "https://az511.com/map/Cctv/4216--14",
    "Status": "Enabled",
    "Description": "I-17 @ 201.39"
  },
  {
    "Id": "4217--14",
    "Organization": "VOD",
    "RoadwayName": "US-60",
    "DirectionOfTravel": "Westbound",
    "Latitude": 33.387955705,
    "Longitude": -111.961766057,
    "Name": "US-60 WB 172.37 @Priest",
    "Url": "https://az511.com/map/Cctv/4217--14",
    "Status": "Enabled",
    "Description": "US-60 @ 172.37"
  },
  {
    "Id": "4218--14",
    "Organization": "VOD",
    "RoadwayName": "US-60",
    "DirectionOfTravel": "Eastbound",
    "Latitude": 33.3853377500001,
    "Longitude": -111.950132614,
    "Name": "US-60 EB 173.06 @E of Priest",
    "Url": "https://az511.com/map/Cctv/4218--14",
    "Status": "Enabled",
    "Description": "US-60 @ 173.06"
  },
  {
    "Id": "4219--14",
    "Organization": "VOD",
    "RoadwayName": "US-60",
    "DirectionOfTravel": "Westbound",
    "Latitude": 33.386069476,
    "Longitude": -111.932597801,
    "Name": "US-60 WB 174.07 @Mill",
    "Url": "https://az511.com/map/Cctv/4219--14",
    "Status": "Enabled",
    "Description": "US-60 @ 174.07"
  },
  {
    "Id": "4220--14",
    "Organization": "VOD",
    "RoadwayName": "US-60",
    "DirectionOfTravel": "Westbound",
    "Latitude": 33.3860703300001,
    "Longitude": -111.923135805,
    "Name": "US-60 WB 174.61 @Rural",
    "Url": "https://az511.com/map/Cctv/4220--14",
    "Status": "Enabled",
    "Description": "US-60 @ 174.61"
  },
  {
    "Id": "4221--14",
    "Organization": "VOD",
    "RoadwayName": "US-60",
    "DirectionOfTravel": "Westbound",
    "Latitude": 33.3860704960001,
    "Longitude": -111.91740652,
    "Name": "US-60 WB 174.94 @E of Rural",
    "Url": "https://az511.com/map/Cctv/4221--14",
    "Status": "Enabled",
    "Description": "US-60 @ 174.94"
  },
  {
    "Id": "4222--14",
    "Organization": "VOD",
    "RoadwayName": "US-60",
    "DirectionOfTravel": "Westbound",
    "Latitude": 33.3859975190001,
    "Longitude": -111.910461934,
    "Name": "US-60 WB 175.34 @McClintock",
    "Url": "https://az511.com/map/Cctv/4222--14",
    "Status": "Enabled",
    "Description": "US-60 @ 175.34"
  },
  {
    "Id": "4223--14",
    "Organization": "VOD",
    "RoadwayName": "US-60",
    "DirectionOfTravel": "Eastbound",
    "Latitude": 33.3851227430001,
    "Longitude": -111.900566061,
    "Name": "US-60 EB 175.92 @E of McClintock",
    "Url": "https://az511.com/map/Cctv/4223--14",
    "Status": "Enabled",
    "Description": "US-60 @ 175.92"
  },
  {
    "Id": "4224--14",
    "Organization": "VOD",
    "RoadwayName": "US-60",
    "DirectionOfTravel": "Eastbound",
    "Latitude": 33.385118291,
    "Longitude": -111.879732532,
    "Name": "US-60 EB 177.15 @E of L-101",
    "Url": "https://az511.com/map/Cctv/4224--14",
    "Status": "Enabled",
    "Description": "US-60 @ 177.15"
  },
  {
    "Id": "4225--14",
    "Organization": "VOD",
    "RoadwayName": "US-60",
    "DirectionOfTravel": "Eastbound",
    "Latitude": 33.3852579370001,
    "Longitude": -111.863239221,
    "Name": "US-60 EB 178.08 @E of Dobson",
    "Url": "https://az511.com/map/Cctv/4225--14",
    "Status": "Enabled",
    "Description": "US-60 @ 178.08"
  },
  {
    "Id": "4226--14",
    "Organization": "VOD",
    "RoadwayName": "US-60",
    "DirectionOfTravel": "Eastbound",
    "Latitude": 33.3853961660001,
    "Longitude": -111.848134784,
    "Name": "US-60 EB 178.95 @E of Alma School",
    "Url": "https://az511.com/map/Cctv/4226--14",
    "Status": "Enabled",
    "Description": "US-60 @ 178.95"
  },
  {
    "Id": "4227--14",
    "Organization": "VOD",
    "RoadwayName": "US-60",
    "DirectionOfTravel": "Westbound",
    "Latitude": 33.386557877,
    "Longitude": -111.842144127,
    "Name": "US-60 WB 179.31 @Country Club",
    "Url": "https://az511.com/map/Cctv/4227--14",
    "Status": "Enabled",
    "Description": "US-60 @ 179.31"
  },
  {
    "Id": "4228--14",
    "Organization": "VOD",
    "RoadwayName": "US-60",
    "DirectionOfTravel": "Eastbound",
    "Latitude": 33.3854587290001,
    "Longitude": -111.831554652,
    "Name": "US-60 EB 179.91 @W of Mesa",
    "Url": "https://az511.com/map/Cctv/4228--14",
    "Status": "Enabled",
    "Description": "US-60 @ 179.91"
  },
  {
    "Id": "4229--14",
    "Organization": "VOD",
    "RoadwayName": "US-60",
    "DirectionOfTravel": "Westbound",
    "Latitude": 33.3867569920001,
    "Longitude": -111.814886251,
    "Name": "US-60 WB 180.84 @E of Mesa",
    "Url": "https://az511.com/map/Cctv/4229--14",
    "Status": "Enabled",
    "Description": "US-60 @ 180.84"
  },
  {
    "Id": "4230--14",
    "Organization": "VOD",
    "RoadwayName": "US-60",
    "DirectionOfTravel": "Eastbound",
    "Latitude": 33.3857207610001,
    "Longitude": -111.796223957,
    "Name": "US-60 EB 181.95 @E of Stapley",
    "Url": "https://az511.com/map/Cctv/4230--14",
    "Status": "Enabled",
    "Description": "US-60 @ 181.95"
  },
  {
    "Id": "4231--14",
    "Organization": "VOD",
    "RoadwayName": "US-60",
    "DirectionOfTravel": "Westbound",
    "Latitude": 33.3867341490001,
    "Longitude": -111.790059199,
    "Name": "US-60 WB 182.31 @Gilbert",
    "Url": "https://az511.com/map/Cctv/4231--14",
    "Status": "Enabled",
    "Description": "US-60 @ 182.31"
  },
  {
    "Id": "4232--14",
    "Organization": "VOD",
    "RoadwayName": "US-60",
    "DirectionOfTravel": "Eastbound",
    "Latitude": 33.3859002830001,
    "Longitude": -111.780076044,
    "Name": "US-60 EB 182.87 @E of Gilbert",
    "Url": "https://az511.com/map/Cctv/4232--14",
    "Status": "Enabled",
    "Description": "US-60 @ 182.87"
  },
  {
    "Id": "4233--14",
    "Organization": "VOD",
    "RoadwayName": "US-60",
    "DirectionOfTravel": "Westbound",
    "Latitude": 33.3867837190001,
    "Longitude": -111.762742912,
    "Name": "US-60 WB 183.88 @W of Val Vista",
    "Url": "https://az511.com/map/Cctv/4233--14",
    "Status": "Enabled",
    "Description": "US-60 @ 183.88"
  },
  {
    "Id": "4234--14",
    "Organization": "VOD",
    "RoadwayName": "L-101",
    "DirectionOfTravel": "Southbound",
    "Latitude": 33.3843069260001,
    "Longitude": -111.892071597,
    "Name": "L-101 SB 55.18 @US-60",
    "Url": "https://az511.com/map/Cctv/4234--14",
    "Status": "Enabled",
    "Description": "L-101 @ 55.18"
  },
  {
    "Id": "4235--14",
    "Organization": "VOD",
    "RoadwayName": "L-101",
    "DirectionOfTravel": "Southbound",
    "Latitude": 33.3780896150001,
    "Longitude": -111.893617283,
    "Name": "L-101 SB 55.61 @Baseline",
    "Url": "https://az511.com/map/Cctv/4235--14",
    "Status": "Enabled",
    "Description": "L-101 @ 55.61"
  },
  {
    "Id": "4236--14",
    "Organization": "VOD",
    "RoadwayName": "L-101",
    "DirectionOfTravel": "Southbound",
    "Latitude": 33.3649143850001,
    "Longitude": -111.894243161,
    "Name": "L-101 SB 56.08 @Guadalupe",
    "Url": "https://az511.com/map/Cctv/4236--14",
    "Status": "Enabled",
    "Description": "L-101 @ 56.08"
  },
  {
    "Id": "4237--14",
    "Organization": "VOD",
    "RoadwayName": "L-202",
    "DirectionOfTravel": "Westbound",
    "Latitude": 33.4589242550001,
    "Longitude": -111.989401412,
    "Name": "L-202 WB 2.22 @E of 40th St",
    "Url": "https://az511.com/map/Cctv/4237--14",
    "Status": "Enabled",
    "Description": "L-202 @ 2.22"
  },
  {
    "Id": "4238--14",
    "Organization": "VOD",
    "RoadwayName": "I-10",
    "DirectionOfTravel": "Westbound",
    "Latitude": 33.4623564010001,
    "Longitude": -112.070627913,
    "Name": "I-10 WB 145.37 @Tunnel",
    "Url": "https://az511.com/map/Cctv/4238--14",
    "Status": "Enabled",
    "Description": "I-10 @ 145.37"
  },
  {
    "Id": "4239--14",
    "Organization": "VOD",
    "RoadwayName": "I-10",
    "DirectionOfTravel": "Westbound",
    "Latitude": 33.4618921150001,
    "Longitude": -112.072939122,
    "Name": "I-10 WB 145.23 @Tunnel",
    "Url": "https://az511.com/map/Cctv/4239--14",
    "Status": "Enabled",
    "Description": "I-10 @ 145.23"
  },
  {
    "Id": "4240--14",
    "Organization": "VOD",
    "RoadwayName": "I-10",
    "DirectionOfTravel": "Westbound",
    "Latitude": 33.4617736960001,
    "Longitude": -112.075361028,
    "Name": "I-10 WB 145.08 @Tunnel",
    "Url": "https://az511.com/map/Cctv/4240--14",
    "Status": "Enabled",
    "Description": "I-10 @ 145.08"
  },
  {
    "Id": "4241--14",
    "Organization": "VOD",
    "RoadwayName": "I-10",
    "DirectionOfTravel": "Westbound",
    "Latitude": 33.461793674,
    "Longitude": -112.077755665,
    "Name": "I-10 WB 144.95 @Tunnel",
    "Url": "https://az511.com/map/Cctv/4241--14",
    "Status": "Enabled",
    "Description": "I-10 @ 144.95"
  },
  {
    "Id": "4242--14",
    "Organization": "VOD",
    "RoadwayName": "I-10",
    "DirectionOfTravel": "Eastbound",
    "Latitude": 33.461493874,
    "Longitude": -112.07767255,
    "Name": "I-10 EB  144.95 @Tunnel",
    "Url": "https://az511.com/map/Cctv/4242--14",
    "Status": "Enabled",
    "Description": "I-10 @ 144.95"
  },
  {
    "Id": "4243--14",
    "Organization": "VOD",
    "RoadwayName": "I-10",
    "DirectionOfTravel": "Eastbound",
    "Latitude": 33.461496891,
    "Longitude": -112.075333004,
    "Name": "I-10 EB  145.08 @Tunnel",
    "Url": "https://az511.com/map/Cctv/4243--14",
    "Status": "Enabled",
    "Description": "I-10 @ 145.08"
  },
  {
    "Id": "4244--14",
    "Organization": "VOD",
    "RoadwayName": "I-10",
    "DirectionOfTravel": "Eastbound",
    "Latitude": 33.461569211,
    "Longitude": -112.072883502,
    "Name": "I-10 EB  145.23 @Tunnel",
    "Url": "https://az511.com/map/Cctv/4244--14",
    "Status": "Enabled",
    "Description": "I-10 @ 145.23"
  },
  {
    "Id": "4245--14",
    "Organization": "VOD",
    "RoadwayName": "I-10",
    "DirectionOfTravel": "Eastbound",
    "Latitude": 33.462079675,
    "Longitude": -112.07054485,
    "Name": "I-10 EB  145.37 @Tunnel",
    "Url": "https://az511.com/map/Cctv/4245--14",
    "Status": "Enabled",
    "Description": "I-10 @ 145.37"
  },
  {
    "Id": "4246--14",
    "Organization": "VOD",
    "RoadwayName": "I-10",
    "DirectionOfTravel": "Eastbound",
    "Latitude": 33.4582308330001,
    "Longitude": -112.038021493,
    "Name": "I-10 EB 147.45 @Mini-Stack--@ S",
    "Url": "https://az511.com/map/Cctv/4246--14",
    "Status": "Enabled",
    "Description": "I-10 @ 147.45"
  },
  {
    "Id": "4247--14",
    "Organization": "VOD",
    "RoadwayName": "I-10",
    "DirectionOfTravel": "Westbound",
    "Latitude": 33.462159007,
    "Longitude": -112.266989393,
    "Name": "I-10 WB 134.02 @L-101W",
    "Url": "https://az511.com/map/Cctv/4247--14",
    "Status": "Enabled",
    "Description": "I-10 @ 134.02"
  },
  {
    "Id": "4248--14",
    "Organization": "VOD",
    "RoadwayName": "L-101",
    "DirectionOfTravel": "Southbound",
    "Latitude": 33.4645843010001,
    "Longitude": -112.269192498,
    "Name": "L-101 SB 1.85 @McDowell",
    "Url": "https://az511.com/map/Cctv/4248--14",
    "Status": "Enabled",
    "Description": "L-101 @ 1.85"
  },
  {
    "Id": "4249--14",
    "Organization": "VOD",
    "RoadwayName": "L-101",
    "DirectionOfTravel": "Southbound",
    "Latitude": 33.4943278260001,
    "Longitude": -112.264561814,
    "Name": "L-101 SB 3.95 @Indian School",
    "Url": "https://az511.com/map/Cctv/4249--14",
    "Status": "Enabled",
    "Description": "L-101 @ 3.95"
  },
  {
    "Id": "4250--14",
    "Organization": "VOD",
    "RoadwayName": "L-101",
    "DirectionOfTravel": "Southbound",
    "Latitude": 33.5080446380001,
    "Longitude": -112.26950165,
    "Name": "L-101 SB 4.96 @Camelback",
    "Url": "https://az511.com/map/Cctv/4250--14",
    "Status": "Enabled",
    "Description": "L-101 @ 4.96"
  },
  {
    "Id": "4251--14",
    "Organization": "VOD",
    "RoadwayName": "L-101",
    "DirectionOfTravel": "Southbound",
    "Latitude": 33.5223380480001,
    "Longitude": -112.269329831,
    "Name": "L-101 SB 5.94 @Bethany Home",
    "Url": "https://az511.com/map/Cctv/4251--14",
    "Status": "Enabled",
    "Description": "L-101 @ 5.94"
  },
  {
    "Id": "4252--14",
    "Organization": "VOD",
    "RoadwayName": "L-101",
    "DirectionOfTravel": "Southbound",
    "Latitude": 33.536814006,
    "Longitude": -112.270016801,
    "Name": "L-101 SB 6.91 @Glendale",
    "Url": "https://az511.com/map/Cctv/4252--14",
    "Status": "Enabled",
    "Description": "L-101 @ 6.91"
  },
  {
    "Id": "4253--14",
    "Organization": "VOD",
    "RoadwayName": "L-101",
    "DirectionOfTravel": "Northbound",
    "Latitude": 33.566568408,
    "Longitude": -112.256971304,
    "Name": "L-101 NB 9.15 @Olive",
    "Url": "https://az511.com/map/Cctv/4253--14",
    "Status": "Enabled",
    "Description": "L-101 @ 9.15"
  },
  {
    "Id": "4254--14",
    "Organization": "VOD",
    "RoadwayName": "L-101",
    "DirectionOfTravel": "Southbound",
    "Latitude": 33.5511225860001,
    "Longitude": -112.267375351,
    "Name": "L-101 SB 7.89 @Northern",
    "Url": "https://az511.com/map/Cctv/4254--14",
    "Status": "Enabled",
    "Description": "L-101 @ 7.89"
  },
  {
    "Id": "4255--14",
    "Organization": "VOD",
    "RoadwayName": "L-101",
    "DirectionOfTravel": "Southbound",
    "Latitude": 33.581139842,
    "Longitude": -112.25977055,
    "Name": "L-101 SB 10.19 @Peoria",
    "Url": "https://az511.com/map/Cctv/4255--14",
    "Status": "Enabled",
    "Description": "L-101 @ 10.19"
  },
  {
    "Id": "4256--14",
    "Organization": "VOD",
    "RoadwayName": "L-101",
    "DirectionOfTravel": "Southbound",
    "Latitude": 33.5976039280001,
    "Longitude": -112.258955253,
    "Name": "L-101 SB 11.44 @N of Grand",
    "Url": "https://az511.com/map/Cctv/4256--14",
    "Status": "Enabled",
    "Description": "L-101 @ 11.44"
  },
  {
    "Id": "4257--14",
    "Organization": "VOD",
    "RoadwayName": "L-101",
    "DirectionOfTravel": "Northbound",
    "Latitude": 33.610271014,
    "Longitude": -112.243509689,
    "Name": "L-101 NB 12.57 @Thunderbird",
    "Url": "https://az511.com/map/Cctv/4257--14",
    "Status": "Enabled",
    "Description": "L-101 @ 12.57"
  },
  {
    "Id": "4258--14",
    "Organization": "VOD",
    "RoadwayName": "L-101",
    "DirectionOfTravel": "Southbound",
    "Latitude": 33.63773503,
    "Longitude": -112.238118908,
    "Name": "L-101 SB 14.57 @Bell",
    "Url": "https://az511.com/map/Cctv/4258--14",
    "Status": "Enabled",
    "Description": "L-101 @ 14.57"
  },
  {
    "Id": "4259--14",
    "Organization": "VOD",
    "RoadwayName": "L-101",
    "DirectionOfTravel": "Southbound",
    "Latitude": 33.6524383650001,
    "Longitude": -112.232952165,
    "Name": "L-101 SB 15.67 @Union Hills",
    "Url": "https://az511.com/map/Cctv/4259--14",
    "Status": "Enabled",
    "Description": "L-101 @ 15.67"
  },
  {
    "Id": "4260--14",
    "Organization": "VOD",
    "RoadwayName": "L-101",
    "DirectionOfTravel": "Westbound",
    "Latitude": 33.6693573260001,
    "Longitude": -112.113689279,
    "Name": "L-101 WB 23.27 @I-17",
    "Url": "https://az511.com/map/Cctv/4260--14",
    "Status": "Enabled",
    "Description": "L-101 @ 23.27"
  },
  {
    "Id": "4261--14",
    "Organization": "VOD",
    "RoadwayName": "L-101",
    "DirectionOfTravel": "Westbound",
    "Latitude": 33.668598762,
    "Longitude": -112.169777512,
    "Name": "L-101 WB 20.05 @51st Av",
    "Url": "https://az511.com/map/Cctv/4261--14",
    "Status": "Enabled",
    "Description": "L-101 @ 20.05"
  },
  {
    "Id": "4262--14",
    "Organization": "VOD",
    "RoadwayName": "L-101",
    "DirectionOfTravel": "Westbound",
    "Latitude": 33.6683951360001,
    "Longitude": -112.203334511,
    "Name": "L-101 WB 18.12 @67th Av",
    "Url": "https://az511.com/map/Cctv/4262--14",
    "Status": "Enabled",
    "Description": "L-101 @ 18.12"
  },
  {
    "Id": "4263--14",
    "Organization": "VOD",
    "RoadwayName": "US-60",
    "DirectionOfTravel": "Westbound",
    "Latitude": 33.3867969290001,
    "Longitude": -111.736145167,
    "Name": "US-60 WB 185.41 @Greenfield",
    "Url": "https://az511.com/map/Cctv/4263--14",
    "Status": "Enabled",
    "Description": "US-60 @ 185.41"
  },
  {
    "Id": "4264--14",
    "Organization": "VOD",
    "RoadwayName": "US-60",
    "DirectionOfTravel": "Eastbound",
    "Latitude": 33.3860616480001,
    "Longitude": -111.719022026,
    "Name": "US-60 EB 186.40 @Higley",
    "Url": "https://az511.com/map/Cctv/4264--14",
    "Status": "Enabled",
    "Description": "US-60 @ 186.4"
  },
  {
    "Id": "4265--14",
    "Organization": "VOD",
    "RoadwayName": "US-60",
    "DirectionOfTravel": "Westbound",
    "Latitude": 33.386958764,
    "Longitude": -111.700254242,
    "Name": "US-60 WB 187.49 @W of Superstition ",
    "Url": "https://az511.com/map/Cctv/4265--14",
    "Status": "Enabled",
    "Description": "US-60 @ 187.49"
  },
  {
    "Id": "4266--14",
    "Organization": "VOD",
    "RoadwayName": "US-60",
    "DirectionOfTravel": "Westbound",
    "Latitude": 33.3869974130001,
    "Longitude": -111.684454693,
    "Name": "US-60 WB 188.40 @Power",
    "Url": "https://az511.com/map/Cctv/4266--14",
    "Status": "Enabled",
    "Description": "US-60 @ 188.4"
  },
  {
    "Id": "4267--14",
    "Organization": "VOD",
    "RoadwayName": "US-60",
    "DirectionOfTravel": "Westbound",
    "Latitude": 33.3879934030001,
    "Longitude": -111.648292314,
    "Name": "US-60 WB 190.49 @L-202N Super Red Tan",
    "Url": "https://az511.com/map/Cctv/4267--14",
    "Status": "Enabled",
    "Description": "US-60 @ 190.49"
  },
  {
    "Id": "4268--14",
    "Organization": "VOD",
    "RoadwayName": "US-60",
    "DirectionOfTravel": "Westbound",
    "Latitude": 33.387093325,
    "Longitude": -111.667174701,
    "Name": "US-60 WB 189.40 @Sossaman",
    "Url": "https://az511.com/map/Cctv/4268--14",
    "Status": "Enabled",
    "Description": "US-60 @ 189.4"
  },
  {
    "Id": "4269--14",
    "Organization": "VOD",
    "RoadwayName": "US-60",
    "DirectionOfTravel": "Eastbound",
    "Latitude": 33.3857227680001,
    "Longitude": -111.648191571,
    "Name": "US-60 EB 190.50 @L-202S Super Red Tan",
    "Url": "https://az511.com/map/Cctv/4269--14",
    "Status": "Enabled",
    "Description": "US-60 @ 190.5"
  },
  {
    "Id": "4270--14",
    "Organization": "VOD",
    "RoadwayName": "US-60",
    "DirectionOfTravel": "Westbound",
    "Latitude": 33.387161319,
    "Longitude": -111.632488039,
    "Name": "US-60 WB 191.41 @Ellsworth",
    "Url": "https://az511.com/map/Cctv/4270--14",
    "Status": "Enabled",
    "Description": "US-60 @ 191.41"
  },
  {
    "Id": "4271--14",
    "Organization": "VOD",
    "RoadwayName": "US-60",
    "DirectionOfTravel": "Eastbound",
    "Latitude": 33.386029131,
    "Longitude": -111.753508108,
    "Name": "US-60 EB 184.41 @Val Vista",
    "Url": "https://az511.com/map/Cctv/4271--14",
    "Status": "Enabled",
    "Description": "US-60 @ 184.41"
  },
  {
    "Id": "4272--14",
    "Organization": "VOD",
    "RoadwayName": "US-60",
    "DirectionOfTravel": "Westbound",
    "Latitude": 33.386931367,
    "Longitude": -111.614925638,
    "Name": "US-60 WB 192.44 @Crismon",
    "Url": "https://az511.com/map/Cctv/4272--14",
    "Status": "Enabled",
    "Description": "US-60 @ 192.44"
  },
  {
    "Id": "4273--14",
    "Organization": "VOD",
    "RoadwayName": "L-101",
    "DirectionOfTravel": "Eastbound",
    "Latitude": 33.6690111990001,
    "Longitude": -112.152286571,
    "Name": "L-101 EB 20.96 @W of 35th Ave",
    "Url": "https://az511.com/map/Cctv/4273--14",
    "Status": "Enabled",
    "Description": "L-101 @ 20.96"
  },
  {
    "Id": "4276--14",
    "Organization": "VOD",
    "RoadwayName": "L-202",
    "DirectionOfTravel": "Eastbound",
    "Latitude": 33.2821252000001,
    "Longitude": -111.8239135,
    "Name": "L-202 EB 46.54 @McQueen",
    "Url": "https://az511.com/map/Cctv/4276--14",
    "Status": "Enabled",
    "Description": "L-202 @ 46.54"
  },
  {
    "Id": "4277--14",
    "Organization": "VOD",
    "RoadwayName": "L-202",
    "DirectionOfTravel": "Westbound",
    "Latitude": 33.28768946,
    "Longitude": -111.84195097,
    "Name": "L-202 WB 47.67 @Arizona Ave",
    "Url": "https://az511.com/map/Cctv/4277--14",
    "Status": "Enabled",
    "Description": "L-202 @ 47.67"
  },
  {
    "Id": "4278--14",
    "Organization": "VOD",
    "RoadwayName": "L-202",
    "DirectionOfTravel": "Westbound",
    "Latitude": 33.2877005600001,
    "Longitude": -111.85921298,
    "Name": "L-202 WB 48.66 @Alma School",
    "Url": "https://az511.com/map/Cctv/4278--14",
    "Status": "Enabled",
    "Description": "L-202 @ 48.66"
  },
  {
    "Id": "4279--14",
    "Organization": "VOD",
    "RoadwayName": "L-202",
    "DirectionOfTravel": "Westbound",
    "Latitude": 33.3210721,
    "Longitude": -111.73896807,
    "Name": "L-202 WB 39.83 @Ray",
    "Url": "https://az511.com/map/Cctv/4279--14",
    "Status": "Enabled",
    "Description": "L-202 @ 39.83"
  },
  {
    "Id": "4280--14",
    "Organization": "VOD",
    "RoadwayName": "L-202",
    "DirectionOfTravel": "Eastbound",
    "Latitude": 33.30657087,
    "Longitude": -111.73877741,
    "Name": "L-202 EB 40.82 @Williams Field",
    "Url": "https://az511.com/map/Cctv/4280--14",
    "Status": "Enabled",
    "Description": "L-202 @ 40.82"
  },
  {
    "Id": "4281--14",
    "Organization": "VOD",
    "RoadwayName": "L-202",
    "DirectionOfTravel": "Eastbound",
    "Latitude": 33.2966699300001,
    "Longitude": -111.74170485,
    "Name": "L-202 EB 41.52 @Santan Village Pkwy",
    "Url": "https://az511.com/map/Cctv/4281--14",
    "Status": "Enabled",
    "Description": "L-202 @ 41.52"
  },
  {
    "Id": "4282--14",
    "Organization": "VOD",
    "RoadwayName": "L-202",
    "DirectionOfTravel": "Eastbound",
    "Latitude": 33.2876550300001,
    "Longitude": -111.75572776,
    "Name": "L-202 EB 42.56 @Val Vista",
    "Url": "https://az511.com/map/Cctv/4282--14",
    "Status": "Enabled",
    "Description": "L-202 @ 42.56"
  },
  {
    "Id": "4283--14",
    "Organization": "VOD",
    "RoadwayName": "L-202",
    "DirectionOfTravel": "Westbound",
    "Latitude": 33.28345159,
    "Longitude": -111.77304366,
    "Name": "L-202 WB 43.59 @Lindsay",
    "Url": "https://az511.com/map/Cctv/4283--14",
    "Status": "Enabled",
    "Description": "L-202 @ 43.59"
  },
  {
    "Id": "4284--14",
    "Organization": "VOD",
    "RoadwayName": "L-202",
    "DirectionOfTravel": "Eastbound",
    "Latitude": 33.2825054300001,
    "Longitude": -111.78933264,
    "Name": "L-202 EB 44.53 @Gilbert",
    "Url": "https://az511.com/map/Cctv/4284--14",
    "Status": "Enabled",
    "Description": "L-202 @ 44.53"
  },
  {
    "Id": "4285--14",
    "Organization": "VOD",
    "RoadwayName": "L-202",
    "DirectionOfTravel": "Eastbound",
    "Latitude": 33.2823082,
    "Longitude": -111.8065567,
    "Name": "L-202 EB 45.55 @Cooper",
    "Url": "https://az511.com/map/Cctv/4285--14",
    "Status": "Enabled",
    "Description": "L-202 @ 45.55"
  },
  {
    "Id": "4286--14",
    "Organization": "VOD",
    "RoadwayName": "I-10",
    "DirectionOfTravel": "Eastbound",
    "Latitude": 33.4119202260001,
    "Longitude": -112.011184791,
    "Name": "I-10 EB 151.44 @32nd St",
    "Url": "https://az511.com/map/Cctv/4286--14",
    "Status": "Enabled",
    "Description": "I-10 @ 151.44"
  },
  {
    "Id": "4287--14",
    "Organization": "VOD",
    "RoadwayName": "I-10",
    "DirectionOfTravel": "Eastbound",
    "Latitude": 33.4085299320001,
    "Longitude": -111.972622937,
    "Name": "I-10 EB 153.46 @Broadway",
    "Url": "https://az511.com/map/Cctv/4287--14",
    "Status": "Enabled",
    "Description": "I-10 @ 153.46"
  },
  {
    "Id": "4288--14",
    "Organization": "VOD",
    "RoadwayName": "I-10",
    "DirectionOfTravel": "Eastbound",
    "Latitude": 33.4616373700001,
    "Longitude": -112.045166304,
    "Name": "I-10 EB 146.86 @E of 16th St",
    "Url": "https://az511.com/map/Cctv/4288--14",
    "Status": "Enabled",
    "Description": "I-10 @ 146.86"
  },
  {
    "Id": "4289--14",
    "Organization": "VOD",
    "RoadwayName": "I-10",
    "DirectionOfTravel": "Westbound",
    "Latitude": 33.410303497,
    "Longitude": -111.974599715,
    "Name": "I-10 WB 153.30 @Broadway",
    "Url": "https://az511.com/map/Cctv/4289--14",
    "Status": "Enabled",
    "Description": "I-10 @ 153.3"
  },
  {
    "Id": "4290--14",
    "Organization": "VOD",
    "RoadwayName": "I-10",
    "DirectionOfTravel": "Westbound",
    "Latitude": 33.4624205310001,
    "Longitude": -112.043605702,
    "Name": "I-10 WB 146.97 @E of 16th St",
    "Url": "https://az511.com/map/Cctv/4290--14",
    "Status": "Enabled",
    "Description": "I-10 @ 146.97"
  },
  {
    "Id": "4291--14",
    "Organization": "VOD",
    "RoadwayName": "L-303",
    "DirectionOfTravel": "Eastbound",
    "Latitude": 33.7688367000001,
    "Longitude": -112.16880988,
    "Name": "L-303 EB 136.89 @35th ave",
    "Url": "https://az511.com/map/Cctv/4291--14",
    "Status": "Enabled",
    "Description": "L-303 @ 136.89"
  },
  {
    "Id": "4292--14",
    "Organization": "VOD",
    "RoadwayName": "I-17",
    "DirectionOfTravel": "Northbound",
    "Latitude": 33.8418846800001,
    "Longitude": -112.14322827,
    "Name": "I-17 NB 227.08 @N of Daisy Mtn",
    "Url": "https://az511.com/map/Cctv/4292--14",
    "Status": "Enabled",
    "Description": "I-17 @ 227.08"
  },
  {
    "Id": "4293--14",
    "Organization": "VOD",
    "RoadwayName": "I-17",
    "DirectionOfTravel": "Southbound",
    "Latitude": 33.8705959500001,
    "Longitude": -112.14695,
    "Name": "I-17 SB 229.05 @Anthem",
    "Url": "https://az511.com/map/Cctv/4293--14",
    "Status": "Enabled",
    "Description": "I-17 @ 229.05"
  },
  {
    "Id": "4294--14",
    "Organization": "VOD",
    "RoadwayName": "I-17",
    "DirectionOfTravel": "Southbound",
    "Latitude": 33.83087849,
    "Longitude": -112.14506917,
    "Name": "I-17 SB 226.31 @Daisy Mtn",
    "Url": "https://az511.com/map/Cctv/4294--14",
    "Status": "Enabled",
    "Description": "I-17 @ 226.31"
  },
  {
    "Id": "4295--14",
    "Organization": "VOD",
    "RoadwayName": "I-17",
    "DirectionOfTravel": "Southbound",
    "Latitude": 33.6763596800001,
    "Longitude": -112.11321748,
    "Name": "I-17 SB 215.46 @N of L-101",
    "Url": "https://az511.com/map/Cctv/4295--14",
    "Status": "Enabled",
    "Description": "I-17 @ 215.46"
  },
  {
    "Id": "4296--14",
    "Organization": "VOD",
    "RoadwayName": "I-17",
    "DirectionOfTravel": "Northbound",
    "Latitude": 33.6841641,
    "Longitude": -112.11204493,
    "Name": "I-17 NB 216.00 @Deer valley",
    "Url": "https://az511.com/map/Cctv/4296--14",
    "Status": "Enabled",
    "Description": "I-17 @ 216.0"
  },
  {
    "Id": "4297--14",
    "Organization": "VOD",
    "RoadwayName": "I-17",
    "DirectionOfTravel": "Southbound",
    "Latitude": 33.6997978100001,
    "Longitude": -112.11559416,
    "Name": "I-17 SB 217.10 @Pinnacle Peak",
    "Url": "https://az511.com/map/Cctv/4297--14",
    "Status": "Enabled",
    "Description": "I-17 @ 217.1"
  },
  {
    "Id": "4298--14",
    "Organization": "VOD",
    "RoadwayName": "I-17",
    "DirectionOfTravel": "Southbound",
    "Latitude": 33.71297931,
    "Longitude": -112.11806962,
    "Name": "I-17 SB 218.05 @Happy Valley",
    "Url": "https://az511.com/map/Cctv/4298--14",
    "Status": "Enabled",
    "Description": "I-17 @ 218.05"
  },
  {
    "Id": "4299--14",
    "Organization": "VOD",
    "RoadwayName": "I-17",
    "DirectionOfTravel": "Northbound",
    "Latitude": 33.72595547,
    "Longitude": -112.1193822,
    "Name": "I-17 NB 218.93 @Jomax",
    "Url": "https://az511.com/map/Cctv/4299--14",
    "Status": "Enabled",
    "Description": "I-17 @ 218.93"
  },
  {
    "Id": "4300--14",
    "Organization": "VOD",
    "RoadwayName": "I-17",
    "DirectionOfTravel": "Southbound",
    "Latitude": 33.7543724600001,
    "Longitude": -112.12706245,
    "Name": "I-17 SB 220.93 @Dixileta",
    "Url": "https://az511.com/map/Cctv/4300--14",
    "Status": "Enabled",
    "Description": "I-17 @ 220.93"
  },
  {
    "Id": "4301--14",
    "Organization": "VOD",
    "RoadwayName": "I-17",
    "DirectionOfTravel": "Northbound",
    "Latitude": 33.7392073400001,
    "Longitude": -112.1225126,
    "Name": "I-17 NB 219.88 @Dynamite",
    "Url": "https://az511.com/map/Cctv/4301--14",
    "Status": "Enabled",
    "Description": "I-17 @ 219.88"
  },
  {
    "Id": "4302--14",
    "Organization": "VOD",
    "RoadwayName": "I-17",
    "DirectionOfTravel": "Northbound",
    "Latitude": 33.820213187,
    "Longitude": -112.140697726,
    "Name": "I-17 NB 225.53 @Pioneer",
    "Url": "https://az511.com/map/Cctv/4302--14",
    "Status": "Enabled",
    "Description": "I-17 @ 225.53"
  },
  {
    "Id": "4303--14",
    "Organization": "VOD",
    "RoadwayName": "I-17",
    "DirectionOfTravel": "Northbound",
    "Latitude": 33.7980544500001,
    "Longitude": -112.13464884,
    "Name": "I-17 NB 223.97 @SR-74 ",
    "Url": "https://az511.com/map/Cctv/4303--14",
    "Status": "Enabled",
    "Description": "I-17 @ 223.97"
  },
  {
    "Id": "4304--14",
    "Organization": "VOD",
    "RoadwayName": "I-17",
    "DirectionOfTravel": "Northbound",
    "Latitude": 33.7832991500001,
    "Longitude": -112.13136716,
    "Name": "I-17 NB 222.93 @Dove Valley",
    "Url": "https://az511.com/map/Cctv/4304--14",
    "Status": "Enabled",
    "Description": "I-17 @ 222.93"
  },
  {
    "Id": "4305--14",
    "Organization": "VOD",
    "RoadwayName": "I-17",
    "DirectionOfTravel": "Northbound",
    "Latitude": 33.76874192,
    "Longitude": -112.12880947,
    "Name": "I-17 NB 221.92 @L-303",
    "Url": "https://az511.com/map/Cctv/4305--14",
    "Status": "Enabled",
    "Description": "I-17 @ 221.92"
  },
  {
    "Id": "4306--14",
    "Organization": "VOD",
    "RoadwayName": "L-202",
    "DirectionOfTravel": "Westbound",
    "Latitude": 33.329336218,
    "Longitude": -111.704277525,
    "Name": "L-202 WB 37.66 @E of Higley",
    "Url": "https://az511.com/map/Cctv/4306--14",
    "Status": "Enabled",
    "Description": "L-202 @ 37.66"
  },