[
  {
    "Id": "3h4buioej0e--1",
    "Organization": "MILWAUKEE",
    "RoadwayName": "I-39/US 51",
    "DirectionOfTravel": "Unknown",
    "Latitude": 44.540555,
    "Longitude": -89.543928,
    "Name": "I-39/US 51 at WIS 66 / Stanley St",
    "Url": "https://511wi.gov/map/Cctv/3h4buioej0e--1",
    "Status": "Enabled",
    "Description": "I-39/US 51 @ WIS 66 / Stanley St"
  },
  {
    "Id": "awaf10v3soh--1",
    "Organization": "MILWAUKEE",
    "RoadwayName": "I-41",
    "DirectionOfTravel": "Unknown",
    "Latitude": 43.472807,
    "Longitude": -88.366357,
    "Name": "I-41 @ County D",
    "Url": "https://511wi.gov/map/Cctv/awaf10v3soh--1",
    "Status": "Enabled",
    "Description": "CCTV-66-0233"
  },
  {
    "Id": "frfzbeu03bk--1",
    "Organization": "MILWAUKEE",
    "RoadwayName": "WIS 113",
    "DirectionOfTravel": "Unknown",
    "Latitude": 43.371946,
    "Longitude": -89.627456,
    "Name": "WIS 113 at Merrimac Ferry North Landing",
    "Url": "https://511wi.gov/map/Cctv/frfzbeu03bk--1",
    "Status": "Enabled",
    "Description": "CCTV-56-0001"
  },
  {
    "Id": "lmpejczvrhb--1",
    "Organization": "MILWAUKEE",
    "RoadwayName": "I-90/94",
    "DirectionOfTravel": "All Directions",
    "Latitude": 43.717913,
    "Longitude": -89.893833,
    "Name": "I-90/94 @ County HH",
    "Url": "https://511wi.gov/map/Cctv/lmpejczvrhb--1",
    "Status": "Enabled",
    "Description": "CCTV-29-0142"
  },
  {
    "Id": "mdm0pgaopg3--1",
    "Organization": "MILWAUKEE",
    "RoadwayName": "I-41/94",
    "DirectionOfTravel": "Both Directions",
    "Latitude": 42.84396,
    "Longitude": -87.951194,
    "Name": "I-41/94 at S 27th St",
    "Url": "https://511wi.gov/map/Cctv/mdm0pgaopg3--1",
    "Status": "Enabled",
    "Description": "N/A"
  },
  {
    "Id": "p5e2t25a5bz--1",
    "Organization": "MILWAUKEE",
    "RoadwayName": "I-41",
    "DirectionOfTravel": "Unknown",
    "Latitude": 43.347029,
    "Longitude": -88.282211,
    "Name": "I-41 @ WIS 144",
    "Url": "https://511wi.gov/map/Cctv/p5e2t25a5bz--1",
    "Status": "Enabled",
    "Description": "CCTV-66-0236"
  },
  {
    "Id": "pp4e24km4j0--1",
    "Organization": "MILWAUKEE",
    "RoadwayName": "I-41",
    "DirectionOfTravel": "Unknown",
    "Latitude": 43.424171,
    "Longitude": -88.335904,
    "Name": "I-41 @ WIS 33",
    "Url": "https://511wi.gov/map/Cctv/pp4e24km4j0--1",
    "Status": "Enabled",
    "Description": "CCTV-66-0234"
  },
  {
    "Id": "qixt1tl0mum--1",
    "Organization": "MILWAUKEE",
    "RoadwayName": "WIS 113",
    "DirectionOfTravel": "Unknown",
    "Latitude": 43.365047,
    "Longitude": -89.619744,
    "Name": "WIS 113 at Merrimac Ferry South Landing",
    "Url": "https://511wi.gov/map/Cctv/qixt1tl0mum--1",
    "Status": "Enabled",
    "Description": "CCTV-11-0001"
  },
  {
    "Id": "vjtb2dxjmfd--1",
    "Organization": "MILWAUKEE",
    "RoadwayName": "I-41",
    "DirectionOfTravel": "Unknown",
    "Latitude": 43.369749,
    "Longitude": -88.297355,
    "Name": "I-41 @ County K",
    "Url": "https://511wi.gov/map/Cctv/vjtb2dxjmfd--1",
    "Status": "Enabled",
    "Description": "CCTV-66-0235"
  },
  {
    "Id": "cbwugob2sls--2",
    "Organization": "MADISON",
    "RoadwayName": "I-90/94",
    "DirectionOfTravel": "All Directions",
    "Latitude": 43.550708,
    "Longitude": -89.684399,
    "Name": "I-90/94 @ County T",
    "Url": "https://511wi.gov/map/Cctv/cbwugob2sls--2",
    "Status": "Enabled",
    "Description": "CCTV-56-0140"
  },
  {
    "Id": "llahfl0d45j--2",
    "Organization": "MADISON",
    "RoadwayName": "I-90/94",
    "DirectionOfTravel": "All Directions",
    "Latitude": 43.563796,
    "Longitude": -89.738578,
    "Name": "I-90/94 @ County A",
    "Url": "https://511wi.gov/map/Cctv/llahfl0d45j--2",
    "Status": "Enabled",
    "Description": "CCTV-56-0141"
  },
  {
    "Id": "lnw2y5vytmr--2",
    "Organization": "MADISON",
    "RoadwayName": "US 12",
    "DirectionOfTravel": "All Directions",
    "Latitude": 44.794444,
    "Longitude": -91.460833,
    "Name": "US 12 @ Business 53 / Hastings Way",
    "Url": "https://511wi.gov/map/Cctv/lnw2y5vytmr--2",
    "Status": "Enabled",
    "Description": "N/A"
  },
  {
    "Id": "abtianwk0vs--5",
    "Organization": "WisDOT",
    "RoadwayName": "I-41",
    "DirectionOfTravel": "All Directions",
    "Latitude": 43.87227,
    "Longitude": -88.584315,
    "Name": "I-41 @ Lincoln Ave",
    "Url": "https://511wi.gov/map/Cctv/abtianwk0vs--5",
    "Status": "Enabled",
    "Description": "CCTV-20-0108"
  },
  {
    "Id": "blhxea4jd1e--5",
    "Organization": "WisDOT",
    "RoadwayName": "US 18/151",
    "DirectionOfTravel": "Unknown",
    "Latitude": 43.015664,
    "Longitude": -89.472438,
    "Name": "US 18/151 Verona Rd @ County PD",
    "Url": "https://511wi.gov/map/Cctv/blhxea4jd1e--5",
    "Status": "Enabled",
    "Description": "CCTV-13-0063"
  },
  {
    "Id": "ee2zbigj1t5--5",
    "Organization": "WisDOT",
    "RoadwayName": "I-90/94",
    "DirectionOfTravel": "All Directions",
    "Latitude": 43.785402,
    "Longitude": -90.046102,
    "Name": "I-90/94 @ County N (S of WIS 82)",
    "Url": "https://511wi.gov/map/Cctv/ee2zbigj1t5--5",
    "Status": "Enabled",
    "Description": "CCTV-29-0143"
  },
  {
    "Id": "izhwedu4o5g--5",
    "Organization": "WisDOT",
    "RoadwayName": "I-90/94",
    "DirectionOfTravel": "All Directions",
    "Latitude": 43.883299,
    "Longitude": -90.147152,
    "Name": "I-90/94 @ WIS 80",
    "Url": "https://511wi.gov/map/Cctv/izhwedu4o5g--5",
    "Status": "Enabled",
    "Description": "CCTV-29-0144"
  },
  {
    "Id": "1--7",
    "Organization": "ATMS",
    "RoadwayName": "I-43",
    "DirectionOfTravel": "Unknown",
    "Latitude": 44.486916,
    "Longitude": -87.940177,
    "Name": "I-43 @ Mason St",
    "Url": "https://511wi.gov/map/Cctv/1--7",
    "Status": "Enabled",
    "Description": "N/A"
  },
  {
    "Id": "10--7",
    "Organization": "ATMS",
    "RoadwayName": "US 41",
    "DirectionOfTravel": "Unknown",
    "Latitude": 44.572739,
    "Longitude": -88.048217,
    "Name": "US 41 @ Lakeview Dr",
    "Url": "https://511wi.gov/map/Cctv/10--7",
    "Status": "Enabled",
    "Description": "N/A"
  },
  {
    "Id": "100--7",
    "Organization": "ATMS",
    "RoadwayName": "I-94",
    "DirectionOfTravel": "Unknown",
    "Latitude": 44.842964,
    "Longitude": -91.603446,
    "Name": "I-94 @ WIS 312",
    "Url": "https://511wi.gov/map/Cctv/100--7",
    "Status": "Enabled",
    "Description": "N/A"
  },
  {
    "Id": "101--7",
    "Organization": "ATMS",
    "RoadwayName": "I-94",
    "DirectionOfTravel": "Unknown",
    "Latitude": 44.643174,
    "Longitude": -91.306404,
    "Name": "I-94 @ County HH (Foster Rd)",
    "Url": "https://511wi.gov/map/Cctv/101--7",
    "Status": "Enabled",
    "Description": "N/A"
  },
  {
    "Id": "102--7",
    "Organization": "ATMS",
    "RoadwayName": "I-94",
    "DirectionOfTravel": "Unknown",
    "Latitude": 44.778462,
    "Longitude": -91.532477,
    "Name": "I-94 @ WIS 37",
    "Url": "https://511wi.gov/map/Cctv/102--7",
    "Status": "Enabled",
    "Description": "N/A"
  },
  {
    "Id": "103--7",
    "Organization": "ATMS",
    "RoadwayName": "I-94",
    "DirectionOfTravel": "Unknown",
    "Latitude": 44.766198,
    "Longitude": -91.459246,
    "Name": "I-94 @ WIS 93",
    "Url": "https://511wi.gov/map/Cctv/103--7",
    "Status": "Enabled",
    "Description": "N/A"
  },
  {
    "Id": "104--7",
    "Organization": "ATMS",
    "RoadwayName": "I-94",
    "DirectionOfTravel": "Unknown",
    "Latitude": 44.620859,
    "Longitude": -91.256846,
    "Name": "I-94 @ County K",
    "Url": "https://511wi.gov/map/Cctv/104--7",
    "Status": "Enabled",
    "Description": "N/A"
  },
  {
    "Id": "105--7",
    "Organization": "ATMS",
    "RoadwayName": "US 53",
    "DirectionOfTravel": "Unknown",
    "Latitude": 44.817888,
    "Longitude": -91.45503,
    "Name": "US 53 @ River Prairie Dr",
    "Url": "https://511wi.gov/map/Cctv/105--7",
    "Status": "Enabled",
    "Description": "N/A"
  },
  {
    "Id": "106--7",
    "Organization": "ATMS",
    "RoadwayName": "US 53",
    "DirectionOfTravel": "Unknown",
    "Latitude": 44.835051,
    "Longitude": -91.451218,
    "Name": "US 53 @ WIS 312",
    "Url": "https://511wi.gov/map/Cctv/106--7",
    "Status": "Enabled",
    "Description": "N/A"
  },
  {
    "Id": "107--7",
    "Organization": "ATMS",
    "RoadwayName": "US 53",
    "DirectionOfTravel": "Unknown",
    "Latitude": 44.77777888,
    "Longitude": -91.43507124,
    "Name": "US 53 @ Golf Rd/Prill Rd",
    "Url": "https://511wi.gov/map/Cctv/107--7",
    "Status": "Enabled",
    "Description": "N/A"
  },
  {
    "Id": "108--7",
    "Organization": "ATMS",
    "RoadwayName": "US 53",
    "DirectionOfTravel": "Unknown",
    "Latitude": 44.78693796,
    "Longitude": -91.4525594,
    "Name": "US 53 @ WIS 93",
    "Url": "https://511wi.gov/map/Cctv/108--7",
    "Status": "Enabled",
    "Description": "N/A"
  },
  {
    "Id": "109--7",
    "Organization": "ATMS",
    "RoadwayName": "I-41",
    "DirectionOfTravel": "Unknown",
    "Latitude": 43.758511,
    "Longitude": -88.475205,
    "Name": "I-41 @ Military Rd ",
    "Url": "https://511wi.gov/map/Cctv/109--7",
    "Status": "Enabled",
    "Description": "N/A"
  },
  {
    "Id": "11--7",
    "Organization": "ATMS",
    "RoadwayName": "US 41",
    "DirectionOfTravel": "Unknown",
    "Latitude": 44.598782,
    "Longitude": -88.049473,
    "Name": "US 41 @ County M/Lineville Rd",
    "Url": "https://511wi.gov/map/Cctv/11--7",
    "Status": "Enabled",
    "Description": "N/A"
  },
  {
    "Id": "110--7",
    "Organization": "ATMS",
    "RoadwayName": "I-41",
    "DirectionOfTravel": "Unknown",
    "Latitude": 43.784249,
    "Longitude": -88.482196,
    "Name": "I-41 @ WIS 23 ",
    "Url": "https://511wi.gov/map/Cctv/110--7",
    "Status": "Enabled",
    "Description": "N/A"
  },
  {
    "Id": "111--7",
    "Organization": "ATMS",
    "RoadwayName": "I-41",
    "DirectionOfTravel": "Unknown",
    "Latitude": 43.737574,
    "Longitude": -88.442476,
    "Name": "I-41 @ US 151 Bypass",
    "Url": "https://511wi.gov/map/Cctv/111--7",
    "Status": "Enabled",
    "Description": "N/A"
  },
  {
    "Id": "112--7",
    "Organization": "ATMS",
    "RoadwayName": "I-94",
    "DirectionOfTravel": "Unknown",
    "Latitude": 44.3872,
    "Longitude": -91.00233,
    "Name": "I-94 @ WIS 95",
    "Url": "https://511wi.gov/map/Cctv/112--7",
    "Status": "Enabled",
    "Description": "N/A"
  },
  {
    "Id": "113--7",
    "Organization": "ATMS",
    "RoadwayName": "I-94",
    "DirectionOfTravel": "Unknown",
    "Latitude": 44.459078,
    "Longitude": -91.093462,
    "Name": "I-94 @ WIS 121",
    "Url": "https://511wi.gov/map/Cctv/113--7",
    "Status": "Enabled",
    "Description": "N/A"
  },
  {
    "Id": "114--7",
    "Organization": "ATMS",
    "RoadwayName": "I-94",
    "DirectionOfTravel": "Unknown",
    "Latitude": 44.309701,
    "Longitude": -90.841994,
    "Name": "I-94 @ US 12 / WIS 27",
    "Url": "https://511wi.gov/map/Cctv/114--7",
    "Status": "Enabled",
    "Description": "N/A"
  },
  {
    "Id": "115--7",
    "Organization": "ATMS",
    "RoadwayName": "I-94",
    "DirectionOfTravel": "Unknown",
    "Latitude": 44.296083,
    "Longitude": -90.822392,
    "Name": "I-94 @ WIS 54",
    "Url": "https://511wi.gov/map/Cctv/115--7",
    "Status": "Enabled",
    "Description": "N/A"
  },
  {
    "Id": "116--7",
    "Organization": "ATMS",
    "RoadwayName": "I-94",
    "DirectionOfTravel": "Unknown",
    "Latitude": 44.192725,
    "Longitude": -90.639921,
    "Name": "I-94 @ County O/Millston",
    "Url": "https://511wi.gov/map/Cctv/116--7",
    "Status": "Enabled",
    "Description": "N/A"
  },
  {
    "Id": "117--7",
    "Organization": "ATMS",
    "RoadwayName": "I-94",
    "DirectionOfTravel": "Unknown",
    "Latitude": 43.086411,
    "Longitude": -88.760961,
    "Name": "I-94 @ WIS 26",
    "Url": "https://511wi.gov/map/Cctv/117--7",
    "Status": "Enabled",
    "Description": "N/A"
  },
  {
    "Id": "118--7",
    "Organization": "ATMS",
    "RoadwayName": "I-94",
    "DirectionOfTravel": "Unknown",
    "Latitude": 43.075508,
    "Longitude": -88.591298,
    "Name": "I-94 @ County F",
    "Url": "https://511wi.gov/map/Cctv/118--7",
    "Status": "Enabled",
    "Description": "N/A"
  },
  {
    "Id": "119--7",
    "Organization": "ATMS",
    "RoadwayName": "I-94",
    "DirectionOfTravel": "Unknown",
    "Latitude": 43.092957,
    "Longitude": -88.908954,
    "Name": "I-94 @ WIS 89",
    "Url": "https://511wi.gov/map/Cctv/119--7",
    "Status": "Enabled",
    "Description": "N/A"
  },
  {
    "Id": "12--7",
    "Organization": "ATMS",
    "RoadwayName": "WIS 29",
    "DirectionOfTravel": "Unknown",
    "Latitude": 44.542813,
    "Longitude": -88.088236,
    "Name": "WIS 29 @ Packerland Ave",
    "Url": "https://511wi.gov/map/Cctv/12--7",
    "Status": "Enabled",
    "Description": "N/A"
  },
  {
    "Id": "120--7",
    "Organization": "ATMS",
    "RoadwayName": "I-94",
    "DirectionOfTravel": "Unknown",
    "Latitude": 43.922218,
    "Longitude": -90.262347,
    "Name": "I-94 @ County C (Camp Douglas)",
    "Url": "https://511wi.gov/map/Cctv/120--7",
    "Status": "Enabled",
    "Description": "N/A"
  },
  {
    "Id": "122--7",
    "Organization": "ATMS",
    "RoadwayName": "I-94",
    "DirectionOfTravel": "Unknown",
    "Latitude": 43.64965,
    "Longitude": -89.813458,
    "Name": "I-90/94 @ US 12/16 ",
    "Url": "https://511wi.gov/map/Cctv/122--7",
    "Status": "Enabled",
    "Description": "N/A"
  },
  {
    "Id": "123--7",
    "Organization": "ATMS",
    "RoadwayName": "I-94",
    "DirectionOfTravel": "Unknown",
    "Latitude": 42.614711,
    "Longitude": -87.952502,
    "Name": "I-41/94 @ WIS 142",
    "Url": "https://511wi.gov/map/Cctv/123--7",
    "Status": "Enabled",
    "Description": "N/A"
  },
  {
    "Id": "124--7",
    "Organization": "ATMS",
    "RoadwayName": "I-94",
    "DirectionOfTravel": "Unknown",
    "Latitude": 42.567928,
    "Longitude": -87.952404,
    "Name": "I-41/94 @ WIS 50",
    "Url": "https://511wi.gov/map/Cctv/124--7",
    "Status": "Enabled",
    "Description": "N/A"
  },
  {
    "Id": "125--7",
    "Organization": "ATMS",
    "RoadwayName": "I-94",
    "DirectionOfTravel": "Unknown",
    "Latitude": 42.523599,
    "Longitude": -87.952362,
    "Name": "I-41/94 @ WIS 165 ",
    "Url": "https://511wi.gov/map/Cctv/125--7",
    "Status": "Enabled",
    "Description": "N/A"
  },
  {
    "Id": "126--7",
    "Organization": "ATMS",
    "RoadwayName": "I-41/94 South",
    "DirectionOfTravel": "Unknown",
    "Latitude": 42.640244,
    "Longitude": -87.952643,
    "Name": "I-41/94 @ County E",
    "Url": "https://511wi.gov/map/Cctv/126--7",
    "Status": "Enabled",
    "Description": "N/A"
  },
  {
    "Id": "127--7",
    "Organization": "ATMS",
    "RoadwayName": "I-94",
    "DirectionOfTravel": "Unknown",
    "Latitude": 42.593576,
    "Longitude": -87.952381,
    "Name": "I-41/94 @ WIS 158",
    "Url": "https://511wi.gov/map/Cctv/127--7",
    "Status": "Enabled",
    "Description": "N/A"
  },
  {
    "Id": "128--7",
    "Organization": "ATMS",
    "RoadwayName": "I-94",
    "DirectionOfTravel": "Unknown",
    "Latitude": 42.543552,
    "Longitude": -87.952611,
    "Name": "I-41/94 @ County C",
    "Url": "https://511wi.gov/map/Cctv/128--7",
    "Status": "Enabled",
    "Description": "N/A"
  },
  {
    "Id": "129--7",
    "Organization": "ATMS",
    "RoadwayName": "I-94",
    "DirectionOfTravel": "Unknown",
    "Latitude": 42.501923,
    "Longitude": -87.951638,
    "Name": "I-41/94 @ County ML",
    "Url": "https://511wi.gov/map/Cctv/129--7",
    "Status": "Enabled",
    "Description": "N/A"
  },
  {
    "Id": "13--7",
    "Organization": "ATMS",
    "RoadwayName": "I-41",
    "DirectionOfTravel": "Unknown",
    "Latitude": 44.484148,
    "Longitude": -88.080039,
    "Name": "I-41 @ WIS 172 ",
    "Url": "https://511wi.gov/map/Cctv/13--7",
    "Status": "Enabled",
    "Description": "N/A"
  },
  {
    "Id": "130--7",
    "Organization": "ATMS",
    "RoadwayName": "I-90",
    "DirectionOfTravel": "Unknown",
    "Latitude": 43.861167,
    "Longitude": -91.255683,
    "Name": "I-90 @ County  B / Dawson Ave (French Island) ",
    "Url": "https://511wi.gov/map/Cctv/130--7",
    "Status": "Enabled",
    "Description": "N/A"
  },
  {
    "Id": "131--7",
    "Organization": "ATMS",
    "RoadwayName": "I-90",
    "DirectionOfTravel": "Unknown",
    "Latitude": 43.86418,
    "Longitude": -91.236767,
    "Name": "I-90 @ US 53 / WIS 35 / Rose St",
    "Url": "https://511wi.gov/map/Cctv/131--7",
    "Status": "Enabled",
    "Description": "N/A"
  },
  {
    "Id": "132--7",
    "Organization": "ATMS",
    "RoadwayName": "I-90",
    "DirectionOfTravel": "Unknown",
    "Latitude": 43.874517,
    "Longitude": -91.209174,
    "Name": "I-90 @ US 53/WIS 157",
    "Url": "https://511wi.gov/map/Cctv/132--7",
    "Status": "Enabled",
    "Description": "N/A"
  },
  {
    "Id": "133--7",
    "Organization": "ATMS",
    "RoadwayName": "I-90",
    "DirectionOfTravel": "Unknown",
    "Latitude": 43.876912,
    "Longitude": -91.183064,
    "Name": "I-90 @ WIS 16",
    "Url": "https://511wi.gov/map/Cctv/133--7",
    "Status": "Enabled",
    "Description": "N/A"
  },
  {
    "Id": "134--7",
    "Organization": "ATMS",
    "RoadwayName": "US 51",
    "DirectionOfTravel": "Unknown",
    "Latitude": 44.931623,
    "Longitude": -89.664556,
    "Name": "US 51 @ County NN",
    "Url": "https://511wi.gov/map/Cctv/134--7",
    "Status": "Enabled",
    "Description": "N/A"
  },
  {
    "Id": "135--7",
    "Organization": "ATMS",
    "RoadwayName": "US 51",
    "DirectionOfTravel": "Unknown",
    "Latitude": 44.894872,
    "Longitude": -89.639299,
    "Name": "US 51 @ WIS 29 East",
    "Url": "https://511wi.gov/map/Cctv/135--7",
    "Status": "Enabled",
    "Description": "N/A"
  },
  {
    "Id": "136--7",
    "Organization": "ATMS",
    "RoadwayName": "US 51",
    "DirectionOfTravel": "Unknown",
    "Latitude": 44.953258,
    "Longitude": -89.667012,
    "Name": "US 51 @ Sherman St",
    "Url": "https://511wi.gov/map/Cctv/136--7",
    "Status": "Enabled",
    "Description": "N/A"
  },
  {
    "Id": "137--7",
    "Organization": "ATMS",
    "RoadwayName": "US 51",
    "DirectionOfTravel": "Unknown",
    "Latitude": 44.965154,
    "Longitude": -89.656641,
    "Name": "US 51 @ WIS 29/WIS 52",
    "Url": "https://511wi.gov/map/Cctv/137--7",
    "Status": "Enabled",
    "Description": "N/A"
  },
  {
    "Id": "138--7",
    "Organization": "ATMS",
    "RoadwayName": "US 51",
    "DirectionOfTravel": "Unknown",
    "Latitude": 44.863529,
    "Longitude": -89.64102,
    "Name": "US 51 @ Grand Ave",
    "Url": "https://511wi.gov/map/Cctv/138--7",
    "Status": "Enabled",
    "Description": "N/A"
  },
  {
    "Id": "139--7",
    "Organization": "ATMS",
    "RoadwayName": "US 51",
    "DirectionOfTravel": "Unknown",
    "Latitude": 44.990351,
    "Longitude": -89.656259,
    "Name": "US 51 @ County K",
    "Url": "https://511wi.gov/map/Cctv/139--7",
    "Status": "Enabled",
    "Description": "N/A"
  },
  {
    "Id": "14--7",
    "Organization": "ATMS",
    "RoadwayName": "WIS 172",
    "DirectionOfTravel": "Unknown",
    "Latitude": 44.477931,
    "Longitude": -88.060232,
    "Name": "WIS 172 @ WIS 32",
    "Url": "https://511wi.gov/map/Cctv/14--7",
    "Status": "Enabled",
    "Description": "N/A"
  },
  {
    "Id": "140--7",
    "Organization": "ATMS",
    "RoadwayName": "US 51",
    "DirectionOfTravel": "Unknown",
    "Latitude": 44.911508,
    "Longitude": -89.651076,
    "Name": "US 51 @ County N",
    "Url": "https://511wi.gov/map/Cctv/140--7",
    "Status": "Enabled",
    "Description": "N/A"
  },
  {
    "Id": "141--7",
    "Organization": "ATMS",
    "RoadwayName": "I-94",
    "DirectionOfTravel": "Unknown",
    "Latitude": 43.030686,
    "Longitude": -88.062254,
    "Name": "I-94 @ 121st St",
    "Url": "https://511wi.gov/map/Cctv/141--7",
    "Status": "Enabled",
    "Description": "N/A"
  },
  {
    "Id": "142--7",
    "Organization": "ATMS",
    "RoadwayName": "I-94",
    "DirectionOfTravel": "Unknown",
    "Latitude": 43.029468,
    "Longitude": -88.046955,
    "Name": "I-94 @ WIS 100",
    "Url": "https://511wi.gov/map/Cctv/142--7",
    "Status": "Enabled",
    "Description": "N/A"
  },
  {
    "Id": "143--7",
    "Organization": "ATMS",
    "RoadwayName": "I-94",
    "DirectionOfTravel": "Unknown",
    "Latitude": 43.027794,
    "Longitude": -88.007089,
    "Name": "I-94 @ 76th St",
    "Url": "https://511wi.gov/map/Cctv/143--7",
    "Status": "Enabled",
    "Description": "N/A"
  },
  {
    "Id": "144--7",
    "Organization": "ATMS",
    "RoadwayName": "I-94",
    "DirectionOfTravel": "Unknown",
    "Latitude": 43.030251,
    "Longitude": -87.986221,
    "Name": "I-94 @ Hawley Rd",
    "Url": "https://511wi.gov/map/Cctv/144--7",
    "Status": "Enabled",
    "Description": "N/A"
  },
  {
    "Id": "145--7",
    "Organization": "ATMS",
    "RoadwayName": "I-94",
    "DirectionOfTravel": "Unknown",
    "Latitude": 43.031358,
    "Longitude": -87.977286,
    "Name": "I-94 @ Mitchell Blvd",
    "Url": "https://511wi.gov/map/Cctv/145--7",
    "Status": "Enabled",
    "Description": "N/A"
  },
  {
    "Id": "146--7",
    "Organization": "ATMS",
    "RoadwayName": "I-94",
    "DirectionOfTravel": "Unknown",
    "Latitude": 43.03261,
    "Longitude": -87.962982,
    "Name": "I-94 @ 39th St",
    "Url": "https://511wi.gov/map/Cctv/146--7",
    "Status": "Enabled",
    "Description": "N/A"
  },
  {
    "Id": "147--7",
    "Organization": "ATMS",
    "RoadwayName": "I-94",
    "DirectionOfTravel": "Unknown",
    "Latitude": 43.032417,
    "Longitude": -87.951538,
    "Name": "I-94 @ 30th St",
    "Url": "https://511wi.gov/map/Cctv/147--7",
    "Status": "Enabled",
    "Description": "N/A"
  },
  {
    "Id": "148--7",
    "Organization": "ATMS",
    "RoadwayName": "I-94",
    "DirectionOfTravel": "Unknown",
    "Latitude": 43.035945,
    "Longitude": -87.93825,
    "Name": "I-94 @ 20th St",
    "Url": "https://511wi.gov/map/Cctv/148--7",
    "Status": "Enabled",
    "Description": "N/A"
  },
  {
    "Id": "149--7",
    "Organization": "ATMS",
    "RoadwayName": "I-94",
    "DirectionOfTravel": "Unknown",
    "Latitude": 43.035124,
    "Longitude": -87.928578,
    "Name": "I-94 @ 13th St",
    "Url": "https://511wi.gov/map/Cctv/149--7",
    "Status": "Enabled",
    "Description": "N/A"
  },
  {
    "Id": "15--7",
    "Organization": "ATMS",
    "RoadwayName": "WIS 172",
    "DirectionOfTravel": "Unknown",
    "Latitude": 44.474174,
    "Longitude": -88.037697,
    "Name": "WIS 172 @ WIS 57",
    "Url": "https://511wi.gov/map/Cctv/15--7",
    "Status": "Enabled",
    "Description": "N/A"
  },
  {
    "Id": "150--7",
    "Organization": "ATMS",
    "RoadwayName": "I-794",
    "DirectionOfTravel": "Unknown",
    "Latitude": 43.03537,
    "Longitude": -87.911613,
    "Name": "I-794 @ 2nd St",
    "Url": "https://511wi.gov/map/Cctv/150--7",
    "Status": "Enabled",
    "Description": "N/A"
  },
  {
    "Id": "151--7",
    "Organization": "ATMS",
    "RoadwayName": "I-43/94",
    "DirectionOfTravel": "Unknown",
    "Latitude": 43.022177,
    "Longitude": -87.920705,
    "Name": "I-43/94 @ National Ave",
    "Url": "https://511wi.gov/map/Cctv/151--7",
    "Status": "Enabled",
    "Description": "N/A"
  },
  {
    "Id": "152--7",
    "Organization": "ATMS",
    "RoadwayName": "I-43/94",
    "DirectionOfTravel": "Unknown",
    "Latitude": 43.012238,
    "Longitude": -87.915525,
    "Name": "I-43/94 @ Mitchell St",
    "Url": "https://511wi.gov/map/Cctv/152--7",
    "Status": "Enabled",
    "Description": "N/A"
  },
  {
    "Id": "153--7",
    "Organization": "ATMS",
    "RoadwayName": "I-43/94",
    "DirectionOfTravel": "Unknown",
    "Latitude": 43.000718,
    "Longitude": -87.915811,
    "Name": "I-43/94 @ Chase Ave",
    "Url": "https://511wi.gov/map/Cctv/153--7",
    "Status": "Enabled",
    "Description": "N/A"
  },
  {
    "Id": "154--7",
    "Organization": "ATMS",
    "RoadwayName": "I-43/94",
    "DirectionOfTravel": "Unknown",
    "Latitude": 42.989246,
    "Longitude": -87.914034,
    "Name": "I-43/94 @ Oklahoma Ave",
    "Url": "https://511wi.gov/map/Cctv/154--7",
    "Status": "Enabled",
    "Description": "N/A"
  },
  {
    "Id": "155--7",
    "Organization": "ATMS",
    "RoadwayName": "I-43/94",
    "DirectionOfTravel": "Unknown",
    "Latitude": 42.981611,
    "Longitude": -87.916812,
    "Name": "I-43/94 @ Holt Ave",
    "Url": "https://511wi.gov/map/Cctv/155--7",
    "Status": "Enabled",
    "Description": "N/A"
  },
  {
    "Id": "156--7",
    "Organization": "ATMS",
    "RoadwayName": "I-43/94",
    "DirectionOfTravel": "Unknown",
    "Latitude": 42.973946,
    "Longitude": -87.915058,
    "Name": "I-43/94 @ Howard Ave",
    "Url": "https://511wi.gov/map/Cctv/156--7",
    "Status": "Enabled",
    "Description": "N/A"
  },
  {
    "Id": "157--7",
    "Organization": "ATMS",
    "RoadwayName": "I-43/894",
    "DirectionOfTravel": "Unknown",
    "Latitude": 42.962394,
    "Longitude": -87.938026,
    "Name": "I-41/43/894 @ 19th St",
    "Url": "https://511wi.gov/map/Cctv/157--7",
    "Status": "Enabled",
    "Description": "N/A"
  },
  {
    "Id": "158--7",
    "Organization": "ATMS",
    "RoadwayName": "I-41/43/894",
    "DirectionOfTravel": "Unknown",
    "Latitude": 42.962159,
    "Longitude": -87.948143,
    "Name": "I-41/43/894 @ 27th St",
    "Url": "https://511wi.gov/map/Cctv/158--7",
    "Status": "Enabled",
    "Description": "N/A"
  },
  {
    "Id": "159--7",
    "Organization": "ATMS",
    "RoadwayName": "I-41/43/894",
    "DirectionOfTravel": "Unknown",
    "Latitude": 42.961362,
    "Longitude": -87.9687,
    "Name": "I-41/43/894 @ Loomis Rd",
    "Url": "https://511wi.gov/map/Cctv/159--7",
    "Status": "Enabled",
    "Description": "N/A"
  },
  {
    "Id": "16--7",
    "Organization": "ATMS",
    "RoadwayName": "WIS 172",
    "DirectionOfTravel": "Unknown",
    "Latitude": 44.460738,
    "Longitude": -88.006736,
    "Name": "WIS 172 @ County XX/Bellevue St",
    "Url": "https://511wi.gov/map/Cctv/16--7",
    "Status": "Enabled",
    "Description": "N/A"
  },
  {
    "Id": "160--7",
    "Organization": "ATMS",
    "RoadwayName": "I-41/43/894",
    "DirectionOfTravel": "Unknown",
    "Latitude": 42.962603,
    "Longitude": -87.988599,
    "Name": "I-41/43/894 @ 60th St",
    "Url": "https://511wi.gov/map/Cctv/160--7",
    "Status": "Enabled",
    "Description": "N/A"
  },
  {
    "Id": "161--7",
    "Organization": "ATMS",
    "RoadwayName": "I-41/43/894",
    "DirectionOfTravel": "Unknown",
    "Latitude": 42.96209,
    "Longitude": -88.008741,
    "Name": "I-41/43/894 @ 76th St",
    "Url": "https://511wi.gov/map/Cctv/161--7",
    "Status": "Enabled",
    "Description": "N/A"
  },
  {
    "Id": "162--7",
    "Organization": "ATMS",
    "RoadwayName": "I-41/43/894",
    "DirectionOfTravel": "Unknown",
    "Latitude": 42.962255999999996,
    "Longitude": -88.018485,
    "Name": "I-41/43/894 @ 84th St",
    "Url": "https://511wi.gov/map/Cctv/162--7",
    "Status": "Enabled",
    "Description": "N/A"
  },
  {
    "Id": "163--7",
    "Organization": "ATMS",
    "RoadwayName": "I-41/43/894",
    "DirectionOfTravel": "Unknown",
    "Latitude": 42.961406,
    "Longitude": -88.028422,
    "Name": "I-41/43/894 @ 92nd St",
    "Url": "https://511wi.gov/map/Cctv/163--7",
    "Status": "Enabled",
    "Description": "N/A"
  },
  {
    "Id": "164--7",
    "Organization": "ATMS",
    "RoadwayName": "I-43",
    "DirectionOfTravel": "Unknown",
    "Latitude": 42.954522,
    "Longitude": -88.047807,
    "Name": "I-43 @ WIS 100",
    "Url": "https://511wi.gov/map/Cctv/164--7",
    "Status": "Enabled",
    "Description": "N/A"
  },
  {
    "Id": "165--7",
    "Organization": "ATMS",
    "RoadwayName": "I-41/894",
    "DirectionOfTravel": "Unknown",
    "Latitude": 42.965428,
    "Longitude": -88.038886,
    "Name": "I-41/894/US 45 @ Coldspring Rd",
    "Url": "https://511wi.gov/map/Cctv/165--7",
    "Status": "Enabled",
    "Description": "N/A"
  },
  {
    "Id": "166--7",
    "Organization": "ATMS",
    "RoadwayName": "I-41/894",
    "DirectionOfTravel": "Unknown",
    "Latitude": 42.979485,
    "Longitude": -88.039569,
    "Name": "I-41/894/US 45 @ Beloit Rd",
    "Url": "https://511wi.gov/map/Cctv/166--7",
    "Status": "Enabled",
    "Description": "N/A"
  },
  {
    "Id": "167--7",
    "Organization": "ATMS",
    "RoadwayName": "I-41/894",
    "DirectionOfTravel": "Unknown",
    "Latitude": 42.989013,
    "Longitude": -88.037972,
    "Name": "I-41/894/US 45 @ Oklahoma Ave",
    "Url": "https://511wi.gov/map/Cctv/167--7",
    "Status": "Enabled",
    "Description": "N/A"
  },
  {
    "Id": "168--7",
    "Organization": "ATMS",
    "RoadwayName": "I-41/894",
    "DirectionOfTravel": "Unknown",
    "Latitude": 43.002477,
    "Longitude": -88.038756,
    "Name": "I-41/894/US 45 @ Lincoln Ave",
    "Url": "https://511wi.gov/map/Cctv/168--7",
    "Status": "Enabled",
    "Description": "N/A"
  },
  {
    "Id": "169--7",
    "Organization": "ATMS",
    "RoadwayName": "I-41/894",
    "DirectionOfTravel": "Unknown",
    "Latitude": 43.016597,
    "Longitude": -88.036941,
    "Name": "I-41/894/US 45 @ Greenfield Ave",
    "Url": "https://511wi.gov/map/Cctv/169--7",
    "Status": "Enabled",
    "Description": "N/A"
  },
  {
    "Id": "17--7",
    "Organization": "ATMS",
    "RoadwayName": "I-43",
    "DirectionOfTravel": "Unknown",
    "Latitude": 44.452972,
    "Longitude": -87.967355,
    "Name": "I-43 @ WIS 172",
    "Url": "https://511wi.gov/map/Cctv/17--7",
    "Status": "Enabled",
    "Description": "N/A"
  },
  {
    "Id": "170--7",
    "Organization": "ATMS",
    "RoadwayName": "I-41/US 45",
    "DirectionOfTravel": "Unknown",
    "Latitude": 43.035833,
    "Longitude": -88.032754,
    "Name": "I-41/US 45 @ Bluemound Rd",
    "Url": "https://511wi.gov/map/Cctv/170--7",
    "Status": "Enabled",
    "Description": "N/A"
  },
  {
    "Id": "171--7",
    "Organization": "ATMS",
    "RoadwayName": "I-41/US 45",
    "DirectionOfTravel": "Unknown",
    "Latitude": 43.04512,
    "Longitude": -88.035523,
    "Name": "I-41/US 45 @ Watertown Plank Rd",
    "Url": "https://511wi.gov/map/Cctv/171--7",
    "Status": "Enabled",
    "Description": "N/A"
  },
  {
    "Id": "172--7",
    "Organization": "ATMS",
    "RoadwayName": "I-41/US 45",
    "DirectionOfTravel": "Unknown",
    "Latitude": 43.053577,
    "Longitude": -88.042299,
    "Name": "I-41/US 45 @ Mayfair Rd",
    "Url": "https://511wi.gov/map/Cctv/172--7",
    "Status": "Enabled",
    "Description": "N/A"
  },
  {
    "Id": "173--7",
    "Organization": "ATMS",
    "RoadwayName": "I-41/US 45",
    "DirectionOfTravel": "Unknown",
    "Latitude": 43.058575,
    "Longitude": -88.053087,
    "Name": "I-41/US 45 @ North Ave",
    "Url": "https://511wi.gov/map/Cctv/173--7",
    "Status": "Enabled",
    "Description": "N/A"
  },
  {
    "Id": "174--7",
    "Organization": "ATMS",
    "RoadwayName": "I-41/US 45",
    "DirectionOfTravel": "Unknown",
    "Latitude": 43.067453,
    "Longitude": -88.053003,
    "Name": "I-41/US 45 @ Center St",
    "Url": "https://511wi.gov/map/Cctv/174--7",
    "Status": "Enabled",
    "Description": "N/A"
  },
  {
    "Id": "175--7",
    "Organization": "ATMS",
    "RoadwayName": "I-41/US 45",
    "DirectionOfTravel": "Unknown",
    "Latitude": 43.080306,
    "Longitude": -88.058295,
    "Name": "I-41/US 45 @ Burleigh St",
    "Url": "https://511wi.gov/map/Cctv/175--7",
    "Status": "Enabled",
    "Description": "N/A"
  },
  {
    "Id": "176--7",
    "Organization": "ATMS",
    "RoadwayName": "I-41/US 45",
    "DirectionOfTravel": "Unknown",
    "Latitude": 43.088111,
    "Longitude": -88.05841,
    "Name": "I-41/US 45 @ Capitol Dr",
    "Url": "https://511wi.gov/map/Cctv/176--7",
    "Status": "Enabled",
    "Description": "N/A"
  },
  {
    "Id": "177--7",
    "Organization": "ATMS",
    "RoadwayName": "I-41/US 45",
    "DirectionOfTravel": "Unknown",
    "Latitude": 43.116458,
    "Longitude": -88.058185,
    "Name": "I-41/US 45 @ Silver Spring Dr",
    "Url": "https://511wi.gov/map/Cctv/177--7",
    "Status": "Enabled",
    "Description": "N/A"
  },
  {
    "Id": "178--7",
    "Organization": "ATMS",
    "RoadwayName": "I-41/US 45",
    "DirectionOfTravel": "Unknown",
    "Latitude": 43.131765,
    "Longitude": -88.055261,
    "Name": "I-41/US 45 @ Appleton Ave",
    "Url": "https://511wi.gov/map/Cctv/178--7",
    "Status": "Enabled",
    "Description": "N/A"
  },
  {
    "Id": "179--7",
    "Organization": "ATMS",
    "RoadwayName": "I-41/US 45",
    "DirectionOfTravel": "Unknown",
    "Latitude": 43.147235,
    "Longitude": -88.053738,
    "Name": "I-41/US 45 @ Good Hope Rd",
    "Url": "https://511wi.gov/map/Cctv/179--7",
    "Status": "Enabled",
    "Description": "N/A"
  },
  {
    "Id": "18--7",
    "Organization": "ATMS",
    "RoadwayName": "I-43",
    "DirectionOfTravel": "Unknown",
    "Latitude": 44.52893,
    "Longitude": -87.993683,
    "Name": "I-43 @ Webster Ave/Tower Bridge",
    "Url": "https://511wi.gov/map/Cctv/18--7",
    "Status": "Enabled",
    "Description": "N/A"
  },
  {
    "Id": "180--7",
    "Organization": "ATMS",
    "RoadwayName": "I-41/US 45",
    "DirectionOfTravel": "Unknown",
    "Latitude": 43.155939,
    "Longitude": -88.057728,
    "Name": "I-41/US 45 @ Park Place",
    "Url": "https://511wi.gov/map/Cctv/180--7",
    "Status": "Enabled",
    "Description": "N/A"
  },
  {
    "Id": "181--7",
    "Organization": "ATMS",
    "RoadwayName": "I-41/US 45",
    "DirectionOfTravel": "Unknown",
    "Latitude": 43.160125,
    "Longitude": -88.063696,
    "Name": "I-41/US 45 @ 124th St",
    "Url": "https://511wi.gov/map/Cctv/181--7",
    "Status": "Enabled",
    "Description": "N/A"
  },
  {
    "Id": "182--7",
    "Organization": "ATMS",
    "RoadwayName": "I-43",
    "DirectionOfTravel": "Unknown",
    "Latitude": 42.962985,
    "Longitude": -87.935424,
    "Name": "I-43 @ Mitchell Interchange",
    "Url": "https://511wi.gov/map/Cctv/182--7",
    "Status": "Enabled",
    "Description": "N/A"
  },
  {
    "Id": "183--7",
    "Organization": "ATMS",
    "RoadwayName": "I-43/94",
    "DirectionOfTravel": "Unknown",
    "Latitude": 42.966242,
    "Longitude": -87.919812,
    "Name": "I-43/94 @ Plainfield Ave",
    "Url": "https://511wi.gov/map/Cctv/183--7",
    "Status": "Enabled",
    "Description": "N/A"
  },
  {
    "Id": "184--7",
    "Organization": "ATMS",
    "RoadwayName": "I-43/94",
    "DirectionOfTravel": "Unknown",
    "Latitude": 42.963591,
    "Longitude": -87.93331,
    "Name": "I-43/94 @ 15th St",
    "Url": "https://511wi.gov/map/Cctv/184--7",
    "Status": "Enabled",
    "Description": "N/A"
  },
  {
    "Id": "185--7",
    "Organization": "ATMS",
    "RoadwayName": "I-94",
    "DirectionOfTravel": "Unknown",
    "Latitude": 42.959764,
    "Longitude": -87.932668,
    "Name": "I-41/94 @ Layton Ave",
    "Url": "https://511wi.gov/map/Cctv/185--7",
    "Status": "Enabled",
    "Description": "N/A"
  },
  {
    "Id": "186--7",
    "Organization": "ATMS",
    "RoadwayName": "I-94",
    "DirectionOfTravel": "Unknown",
    "Latitude": 42.940535,
    "Longitude": -87.934192,
    "Name": "I-41/94 @ Airport Spur",
    "Url": "https://511wi.gov/map/Cctv/186--7",
    "Status": "Enabled",
    "Description": "N/A"
  },
  {
    "Id": "187--7",
    "Organization": "ATMS",
    "RoadwayName": "I-94",
    "DirectionOfTravel": "Unknown",
    "Latitude": 42.930448,
    "Longitude": -87.934847,
    "Name": "I-41/94 @ College Ave",
    "Url": "https://511wi.gov/map/Cctv/187--7",
    "Status": "Enabled",
    "Description": "N/A"
  },
  {
    "Id": "188--7",
    "Organization": "ATMS",
    "RoadwayName": "I-94",
    "DirectionOfTravel": "Unknown",
    "Latitude": 42.916093,
    "Longitude": -87.936158,
    "Name": "I-41/94 @ Rawson Ave ",
    "Url": "https://511wi.gov/map/Cctv/188--7",
    "Status": "Enabled",
    "Description": "N/A"
  },
  {
    "Id": "189--7",
    "Organization": "ATMS",
    "RoadwayName": "I-94",
    "DirectionOfTravel": "Unknown",
    "Latitude": 42.90182,
    "Longitude": -87.935757,
    "Name": "I-41/94 @ Drexel Ave",
    "Url": "https://511wi.gov/map/Cctv/189--7",
    "Status": "Enabled",
    "Description": "N/A"
  },
  {
    "Id": "19--7",
    "Organization": "ATMS",
    "RoadwayName": "I-43",
    "DirectionOfTravel": "Unknown",
    "Latitude": 44.538964,
    "Longitude": -88.02467,
    "Name": "I-43 @ Atkinson Ave",
    "Url": "https://511wi.gov/map/Cctv/19--7",
    "Status": "Enabled",
    "Description": "N/A"
  },
  {
    "Id": "190--7",
    "Organization": "ATMS",
    "RoadwayName": "I-94",
    "DirectionOfTravel": "Unknown",
    "Latitude": 42.872683,
    "Longitude": -87.936791,
    "Name": "I-41/94 @ Ryan Rd",
    "Url": "https://511wi.gov/map/Cctv/190--7",
    "Status": "Enabled",
    "Description": "N/A"
  },
  {
    "Id": "191--7",
    "Organization": "ATMS",
    "RoadwayName": "I-43",
    "DirectionOfTravel": "Unknown",
    "Latitude": 43.042513,
    "Longitude": -87.924836,
    "Name": "I-43 @ State St",
    "Url": "https://511wi.gov/map/Cctv/191--7",
    "Status": "Enabled",
    "Description": "N/A"
  },
  {
    "Id": "192--7",
    "Organization": "ATMS",
    "RoadwayName": "I-43",
    "DirectionOfTravel": "Unknown",
    "Latitude": 43.044562,
    "Longitude": -87.926512,
    "Name": "I-43 @ Highland Ave",
    "Url": "https://511wi.gov/map/Cctv/192--7",
    "Status": "Enabled",
    "Description": "N/A"
  },
  {
    "Id": "193--7",
    "Organization": "ATMS",
    "RoadwayName": "I-43",
    "DirectionOfTravel": "Unknown",
    "Latitude": 43.0523,
    "Longitude": -87.926026,
    "Name": "I-43 @ Walnut St",
    "Url": "https://511wi.gov/map/Cctv/193--7",
    "Status": "Enabled",
    "Description": "N/A"
  },
  {
    "Id": "194--7",
    "Organization": "ATMS",
    "RoadwayName": "I-43",
    "DirectionOfTravel": "Unknown",
    "Latitude": 43.05661,
    "Longitude": -87.925163,
    "Name": "I-43 @ Brown St",
    "Url": "https://511wi.gov/map/Cctv/194--7",
    "Status": "Enabled",
    "Description": "N/A"
  },
  {
    "Id": "195--7",
    "Organization": "ATMS",
    "RoadwayName": "I-43",
    "DirectionOfTravel": "Unknown",
    "Latitude": 43.063916,
    "Longitude": -87.921138,
    "Name": "I-43 @ Wright St",
    "Url": "https://511wi.gov/map/Cctv/195--7",
    "Status": "Enabled",
    "Description": "N/A"
  },
  {
    "Id": "196--7",
    "Organization": "ATMS",
    "RoadwayName": "I-43",
    "DirectionOfTravel": "Unknown",
    "Latitude": 43.081454,
    "Longitude": -87.920052,
    "Name": "I-43 @ Keefe Ave",
    "Url": "https://511wi.gov/map/Cctv/196--7",
    "Status": "Enabled",
    "Description": "N/A"
  },
  {
    "Id": "197--7",
    "Organization": "ATMS",
    "RoadwayName": "I-43",
    "DirectionOfTravel": "Unknown",
    "Latitude": 43.092192,
    "Longitude": -87.922126,
    "Name": "I-43 @ Capitol Dr",
    "Url": "https://511wi.gov/map/Cctv/197--7",
    "Status": "Enabled",
    "Description": "N/A"
  },
  {
    "Id": "198--7",
    "Organization": "ATMS",
    "RoadwayName": "I-43",
    "DirectionOfTravel": "Unknown",
    "Latitude": 43.10475,
    "Longitude": -87.917815,
    "Name": "I-43 @ Hampton Ave",
    "Url": "https://511wi.gov/map/Cctv/198--7",
    "Status": "Enabled",
    "Description": "N/A"
  },
  {
    "Id": "199--7",
    "Organization": "ATMS",
    "RoadwayName": "I-43",
    "DirectionOfTravel": "Unknown",
    "Latitude": 43.117317,
    "Longitude": -87.91903,
    "Name": "I-43 @ Silver Spring Sr",
    "Url": "https://511wi.gov/map/Cctv/199--7",
    "Status": "Enabled",
    "Description": "N/A"
  },
  {
    "Id": "2--7",
    "Organization": "ATMS",
    "RoadwayName": "I-41",
    "DirectionOfTravel": "Unknown",
    "Latitude": 44.43092,
    "Longitude": -88.112125,
    "Name": "I-41 @ Scheuring Rd ",
    "Url": "https://511wi.gov/map/Cctv/2--7",
    "Status": "Enabled",
    "Description": "N/A"
  },
  {
    "Id": "20--7",
    "Organization": "ATMS",
    "RoadwayName": "I-43",
    "DirectionOfTravel": "Unknown",
    "Latitude": 44.520269,
    "Longitude": -87.967748,
    "Name": "I-43 @ Danz Ave",
    "Url": "https://511wi.gov/map/Cctv/20--7",
    "Status": "Enabled",
    "Description": "N/A"
  },
  {
    "Id": "200--7",
    "Organization": "ATMS",
    "RoadwayName": "I-43",
    "DirectionOfTravel": "Unknown",
    "Latitude": 43.139309,
    "Longitude": -87.913861,
    "Name": "I-43 @ Daphne Rd",
    "Url": "https://511wi.gov/map/Cctv/200--7",
    "Status": "Enabled",
    "Description": "N/A"
  },
  {
    "Id": "201--7",
    "Organization": "ATMS",
    "RoadwayName": "I-43",
    "DirectionOfTravel": "Unknown",
    "Latitude": 43.147609,
    "Longitude": -87.916333,
    "Name": "I-43 @ Good Hope Rd",
    "Url": "https://511wi.gov/map/Cctv/201--7",
    "Status": "Enabled",
    "Description": "N/A"
  },
  {
    "Id": "202--7",
    "Organization": "ATMS",
    "RoadwayName": "WIS 175",
    "DirectionOfTravel": "Unknown",
    "Latitude": 43.037181,
    "Longitude": -87.970192,
    "Name": "WIS 175 @ Bluemound Rd",
    "Url": "https://511wi.gov/map/Cctv/202--7",
    "Status": "Enabled",
    "Description": "N/A"
  },
  {
    "Id": "203--7",
    "Organization": "ATMS",
    "RoadwayName": "Miller Park Way",
    "DirectionOfTravel": "Unknown",
    "Latitude": 43.027562,
    "Longitude": -87.968511,
    "Name": "Miller Park Way @ Stadium ",
    "Url": "https://511wi.gov/map/Cctv/203--7",
    "Status": "Enabled",
    "Description": "N/A"
  },
  {
    "Id": "204--7",
    "Organization": "ATMS",
    "RoadwayName": "Miller Park Way",
    "DirectionOfTravel": "Unknown",
    "Latitude": 43.020735,
    "Longitude": -87.970372,
    "Name": "Miller Park Way @ National Ave",
    "Url": "https://511wi.gov/map/Cctv/204--7",
    "Status": "Enabled",
    "Description": "N/A"
  },
  {
    "Id": "205--7",
    "Organization": "ATMS",
    "RoadwayName": "I-43",
    "DirectionOfTravel": "Unknown",
    "Latitude": 42.957082,
    "Longitude": -88.052073,
    "Name": "I-43 @ 112th St",
    "Url": "https://511wi.gov/map/Cctv/205--7",
    "Status": "Enabled",
    "Description": "N/A"
  },
  {
    "Id": "206--7",
    "Organization": "ATMS",
    "RoadwayName": "I-43",
    "DirectionOfTravel": "Unknown",
    "Latitude": 42.957114,
    "Longitude": -88.069398,
    "Name": "I-43 @ 124th St",
    "Url": "https://511wi.gov/map/Cctv/206--7",
    "Status": "Enabled",
    "Description": "N/A"
  },
  {
    "Id": "207--7",
    "Organization": "ATMS",
    "RoadwayName": "I-43",
    "DirectionOfTravel": "Unknown",
    "Latitude": 43.176325,
    "Longitude": -87.917392,
    "Name": "I-43 @ Brown Deer Rd",
    "Url": "https://511wi.gov/map/Cctv/207--7",
    "Status": "Enabled",
    "Description": "N/A"
  },
  {
    "Id": "208--7",
    "Organization": "ATMS",
    "RoadwayName": "I-794",
    "DirectionOfTravel": "Unknown",
    "Latitude": 43.013675,
    "Longitude": -87.895173,
    "Name": "I-794 @ Hoan Bridge",
    "Url": "https://511wi.gov/map/Cctv/208--7",
    "Status": "Enabled",
    "Description": "N/A"
  },
  {
    "Id": "209--7",
    "Organization": "ATMS",
    "RoadwayName": "I-794",
    "DirectionOfTravel": "Unknown",
    "Latitude": 43.003491,
    "Longitude": -87.890677,
    "Name": "I-794 @ Carferry Dr",
    "Url": "https://511wi.gov/map/Cctv/209--7",
    "Status": "Enabled",
    "Description": "N/A"
  },
  {
    "Id": "21--7",
    "Organization": "ATMS",
    "RoadwayName": "I-43",
    "DirectionOfTravel": "Unknown",
    "Latitude": 44.516212,
    "Longitude": -87.947769,
    "Name": "I-43 @ University Ave",
    "Url": "https://511wi.gov/map/Cctv/21--7",
    "Status": "Enabled",
    "Description": "N/A"
  },
  {
    "Id": "210--7",
    "Organization": "ATMS",
    "RoadwayName": "I-43",
    "DirectionOfTravel": "Unknown",
    "Latitude": 43.040351,
    "Longitude": -87.925577,
    "Name": "I-43 @ Wells St",
    "Url": "https://511wi.gov/map/Cctv/210--7",
    "Status": "Enabled",
    "Description": "N/A"
  },
  {
    "Id": "211--7",
    "Organization": "ATMS",
    "RoadwayName": "WIS 145",
    "DirectionOfTravel": "Unknown",
    "Latitude": 43.048399,
    "Longitude": -87.923536,
    "Name": "I-43 @ McKinley Ave",
    "Url": "https://511wi.gov/map/Cctv/211--7",
    "Status": "Enabled",
    "Description": "N/A"
  },
  {
    "Id": "212--7",
    "Organization": "ATMS",
    "RoadwayName": "I-794",
    "DirectionOfTravel": "Unknown",
    "Latitude": 43.035866,
    "Longitude": -87.900293,
    "Name": "I-794 @ Lincoln Memorial Dr",
    "Url": "https://511wi.gov/map/Cctv/212--7",
    "Status": "Enabled",
    "Description": "N/A"
  },
  {
    "Id": "213--7",
    "Organization": "ATMS",
    "RoadwayName": "I-794",
    "DirectionOfTravel": "Unknown",
    "Latitude": 43.03624,
    "Longitude": -87.920719,
    "Name": "I-794 @ James Lovell Blvd",
    "Url": "https://511wi.gov/map/Cctv/213--7",
    "Status": "Enabled",
    "Description": "N/A"
  },
  {
    "Id": "214--7",
    "Organization": "ATMS",
    "RoadwayName": "I-94",
    "DirectionOfTravel": "Unknown",
    "Latitude": 43.028945,
    "Longitude": -88.033432,
    "Name": "I-94 @ Zoo Interchange",
    "Url": "https://511wi.gov/map/Cctv/214--7",
    "Status": "Enabled",
    "Description": "N/A"
  },
  {
    "Id": "215--7",
    "Organization": "ATMS",
    "RoadwayName": "WIS 100",
    "DirectionOfTravel": "Unknown",
    "Latitude": 43.035232,
    "Longitude": -88.047087,
    "Name": "WIS 100 @ Bluemound Rd",
    "Url": "https://511wi.gov/map/Cctv/215--7",
    "Status": "Enabled",
    "Description": "N/A"
  },
  {
    "Id": "216--7",
    "Organization": "ATMS",
    "RoadwayName": "I-94",
    "DirectionOfTravel": "Unknown",
    "Latitude": 43.027974,
    "Longitude": -88.037161,
    "Name": "I-94 @ I-41/US 45 Zoo Interchange",
    "Url": "https://511wi.gov/map/Cctv/216--7",
    "Status": "Enabled",
    "Description": "N/A"
  },
  {
    "Id": "217--7",
    "Organization": "ATMS",
    "RoadwayName": "I-94",
    "DirectionOfTravel": "Unknown",
    "Latitude": 43.033314,
    "Longitude": -87.968647,
    "Name": "I-94 @ WIS 175",
    "Url": "https://511wi.gov/map/Cctv/217--7",
    "Status": "Enabled",
    "Description": "N/A"
  },
  {
    "Id": "218--7",
    "Organization": "ATMS",
    "RoadwayName": "WIS 100",
    "DirectionOfTravel": "Unknown",
    "Latitude": 43.040967,
    "Longitude": -88.047036,
    "Name": "WIS 100 @ Research Dr.",
    "Url": "https://511wi.gov/map/Cctv/218--7",
    "Status": "Enabled",
    "Description": "N/A"
  },
  {
    "Id": "219--7",
    "Organization": "ATMS",
    "RoadwayName": "WIS 100",
    "DirectionOfTravel": "Unknown",
    "Latitude": 43.116977,
    "Longitude": -88.055472,
    "Name": "WIS 100 @ Silver Spring Dr",
    "Url": "https://511wi.gov/map/Cctv/219--7",
    "Status": "Enabled",
    "Description": "N/A"
  },
  {
    "Id": "22--7",
    "Organization": "ATMS",
    "RoadwayName": "I-43",
    "DirectionOfTravel": "Unknown",
    "Latitude": 44.46734,
    "Longitude": -87.951596,
    "Name": "I-43 @ County JJ",
    "Url": "https://511wi.gov/map/Cctv/22--7",
    "Status": "Enabled",
    "Description": "N/A"
  },
  {
    "Id": "220--7",
    "Organization": "ATMS",
    "RoadwayName": "WIS 100",
    "DirectionOfTravel": "Unknown",
    "Latitude": 43.10494,
    "Longitude": -88.052882,
    "Name": "WIS 100 @ Hampton Ave",
    "Url": "https://511wi.gov/map/Cctv/220--7",
    "Status": "Enabled",
    "Description": "N/A"
  },
  {
    "Id": "221--7",
    "Organization": "ATMS",
    "RoadwayName": "WIS 100",
    "DirectionOfTravel": "Unknown",
    "Latitude": 43.089806,
    "Longitude": -88.0475,
    "Name": "WIS 100 @ Capitol Dr",
    "Url": "https://511wi.gov/map/Cctv/221--7",
    "Status": "Enabled",
    "Description": "N/A"
  },
  {
    "Id": "222--7",
    "Organization": "ATMS",
    "RoadwayName": "WIS 100",
    "DirectionOfTravel": "Unknown",
    "Latitude": 43.074646,
    "Longitude": -88.04789,
    "Name": "WIS 100 @ Burleigh Ave",
    "Url": "https://511wi.gov/map/Cctv/222--7",
    "Status": "Enabled",
    "Description": "N/A"
  },
  {
    "Id": "223--7",
    "Organization": "ATMS",
    "RoadwayName": "WIS 100",
    "DirectionOfTravel": "Unknown",
    "Latitude": 43.060053,
    "Longitude": -88.047871,
    "Name": "WIS 100 @ North Ave",
    "Url": "https://511wi.gov/map/Cctv/223--7",
    "Status": "Enabled",
    "Description": "N/A"
  },
  {
    "Id": "224--7",
    "Organization": "ATMS",
    "RoadwayName": "WIS 100",
    "DirectionOfTravel": "Unknown",
    "Latitude": 43.045804,
    "Longitude": -88.047012,
    "Name": "WIS 100 @ Watertown Plank Rd",
    "Url": "https://511wi.gov/map/Cctv/224--7",
    "Status": "Enabled",
    "Description": "N/A"
  },
  {
    "Id": "225--7",
    "Organization": "ATMS",
    "RoadwayName": "WIS 100",
    "DirectionOfTravel": "Unknown",
    "Latitude": 43.016199,
    "Longitude": -88.04672,
    "Name": "WIS 100 @ Greenfield Ave",
    "Url": "https://511wi.gov/map/Cctv/225--7",
    "Status": "Enabled",
    "Description": "N/A"
  },
  {
    "Id": "226--7",
    "Organization": "ATMS",
    "RoadwayName": "WIS 100",
    "DirectionOfTravel": "Unknown",
    "Latitude": 43.002719,
    "Longitude": -88.046741,
    "Name": "WIS 100 @ Lincoln Ave",
    "Url": "https://511wi.gov/map/Cctv/226--7",
    "Status": "Enabled",
    "Description": "N/A"
  },
  {
    "Id": "227--7",
    "Organization": "ATMS",
    "RoadwayName": "WIS 119",
    "DirectionOfTravel": "Unknown",
    "Latitude": 42.947604,
    "Longitude": -87.90917,
    "Name": "WIS 119 @ Howell Ave",
    "Url": "https://511wi.gov/map/Cctv/227--7",
    "Status": "Enabled",
    "Description": "N/A"
  },
  {
    "Id": "228--7",
    "Organization": "ATMS",
    "RoadwayName": "WIS 794",
    "DirectionOfTravel": "Unknown",
    "Latitude": 42.95881,
    "Longitude": -87.881899,
    "Name": "WIS 794 @ Layton Ave",
    "Url": "https://511wi.gov/map/Cctv/228--7",
    "Status": "Enabled",
    "Description": "N/A"
  },
  {
    "Id": "229--7",
    "Organization": "ATMS",
    "RoadwayName": "Greenfield Ave",
    "DirectionOfTravel": "Unknown",
    "Latitude": 43.016478,
    "Longitude": -88.017097,
    "Name": "84th St @ Greenfield Ave",
    "Url": "https://511wi.gov/map/Cctv/229--7",
    "Status": "Enabled",
    "Description": "N/A"
  },
  {
    "Id": "23--7",
    "Organization": "ATMS",
    "RoadwayName": "WIS 29",
    "DirectionOfTravel": "Unknown",
    "Latitude": 44.560183,
    "Longitude": -88.130806,
    "Name": "WIS 29 @ County FF",
    "Url": "https://511wi.gov/map/Cctv/23--7",
    "Status": "Enabled",
    "Description": "N/A"
  },
  {
    "Id": "230--7",
    "Organization": "ATMS",
    "RoadwayName": "I-41/94",
    "DirectionOfTravel": "Unknown",
    "Latitude": 42.944465,
    "Longitude": -87.935582,
    "Name": "I-41/94 @ Grange Ave",
    "Url": "https://511wi.gov/map/Cctv/230--7",
    "Status": "Enabled",
    "Description": "N/A"
  },
  {
    "Id": "231--7",
    "Organization": "ATMS",
    "RoadwayName": "I-94",
    "DirectionOfTravel": "Unknown",
    "Latitude": 43.027113,
    "Longitude": -88.017004,
    "Name": "I-94 @ 84th St",
    "Url": "https://511wi.gov/map/Cctv/231--7",
    "Status": "Enabled",
    "Description": "N/A"
  },
  {
    "Id": "232--7",
    "Organization": "ATMS",
    "RoadwayName": "I-94 ",
    "DirectionOfTravel": "Unknown",
    "Latitude": 43.029997,
    "Longitude": -87.997176,
    "Name": "I-94 @ 68th St",
    "Url": "https://511wi.gov/map/Cctv/232--7",
    "Status": "Enabled",
    "Description": "N/A"
  },
  {
    "Id": "233--7",
    "Organization": "ATMS",
    "RoadwayName": "I-41/94",
    "DirectionOfTravel": "Unknown",
    "Latitude": 42.857941,
    "Longitude": -87.93778,
    "Name": "I-41/94 @ Oakwood Rd",
    "Url": "https://511wi.gov/map/Cctv/233--7",
    "Status": "Enabled",
    "Description": "N/A"
  },
  {
    "Id": "234--7",
    "Organization": "ATMS",
    "RoadwayName": "I-794",
    "DirectionOfTravel": "Unknown",
    "Latitude": 42.987471,
    "Longitude": -87.887352,
    "Name": "WIS 794 @ Oklahoma Ave",
    "Url": "https://511wi.gov/map/Cctv/234--7",
    "Status": "Enabled",
    "Description": "N/A"
  },
  {
    "Id": "235--7",
    "Organization": "ATMS",
    "RoadwayName": "WIS 175",
    "DirectionOfTravel": "Unknown",
    "Latitude": 43.041024,
    "Longitude": -87.97324,
    "Name": "WIS 175 @ Wells St",
    "Url": "https://511wi.gov/map/Cctv/235--7",
    "Status": "Enabled",
    "Description": "N/A"
  },
  {
    "Id": "236--7",
    "Organization": "ATMS",
    "RoadwayName": "I-41/US 45",
    "DirectionOfTravel": "Unknown",
    "Latitude": 43.050513,
    "Longitude": -88.039888,
    "Name": "I-41/US 45 @ Swan Blvd",
    "Url": "https://511wi.gov/map/Cctv/236--7",
    "Status": "Enabled",
    "Description": "N/A"
  },
  {
    "Id": "237--7",
    "Organization": "ATMS",
    "RoadwayName": "Bluemound Rd",
    "DirectionOfTravel": "Unknown",
    "Latitude": 43.03582,
    "Longitude": -88.01634,
    "Name": "Bluemound Rd @ 84th St",
    "Url": "https://511wi.gov/map/Cctv/237--7",
    "Status": "Enabled",
    "Description": "N/A"
  },
  {
    "Id": "238--7",
    "Organization": "ATMS",
    "RoadwayName": "I-41/894",
    "DirectionOfTravel": "Unknown",
    "Latitude": 42.99559,
    "Longitude": -88.03766,
    "Name": "I-41/894/US 45 @ Cleveland Ave",
    "Url": "https://511wi.gov/map/Cctv/238--7",
    "Status": "Enabled",
    "Description": "N/A"
  },
  {
    "Id": "239--7",
    "Organization": "ATMS",
    "RoadwayName": "I-41",
    "DirectionOfTravel": "Unknown",
    "Latitude": 43.10503,
    "Longitude": -88.0577,
    "Name": "I-41/US 45 @ Hampton Ave",
    "Url": "https://511wi.gov/map/Cctv/239--7",
    "Status": "Enabled",
    "Description": "N/A"
  },
  {
    "Id": "24--7",
    "Organization": "ATMS",
    "RoadwayName": "I-41",
    "DirectionOfTravel": "Unknown",
    "Latitude": 44.349523,
    "Longitude": -88.19359,
    "Name": "I-41 @ County U",
    "Url": "https://511wi.gov/map/Cctv/24--7",
    "Status": "Enabled",
    "Description": "N/A"
  },
  {
    "Id": "240--7",
    "Organization": "ATMS",
    "RoadwayName": "Greenfield Ave",
    "DirectionOfTravel": "Unknown",
    "Latitude": 43.016384,
    "Longitude": -88.066905,
    "Name": "Greenfield Ave. @ 124th St",
    "Url": "https://511wi.gov/map/Cctv/240--7",
    "Status": "Enabled",
    "Description": "N/A"
  },
  {
    "Id": "241--7",
    "Organization": "ATMS",
    "RoadwayName": "Greenfield Ave",
    "DirectionOfTravel": "Unknown",
    "Latitude": 43.016384,
    "Longitude": -88.05675,
    "Name": "Greenfield Ave. @ 116th St",
    "Url": "https://511wi.gov/map/Cctv/241--7",
    "Status": "Enabled",
    "Description": "N/A"
  },
  {
    "Id": "242--7",
    "Organization": "ATMS",
    "RoadwayName": "I-43",
    "DirectionOfTravel": "Unknown",
    "Latitude": 43.038355,
    "Longitude": -87.924532,
    "Name": "I-43 @ Wisconsin Ave",
    "Url": "https://511wi.gov/map/Cctv/242--7",
    "Status": "Enabled",
    "Description": "N/A"
  },
  {
    "Id": "243--7",
    "Organization": "ATMS",
    "RoadwayName": "I-794",
    "DirectionOfTravel": "Unknown",
    "Latitude": 43.02584,
    "Longitude": -87.8988,
    "Name": "I-794 @ North Hoan Bridge",
    "Url": "https://511wi.gov/map/Cctv/243--7",
    "Status": "Enabled",
    "Description": "N/A"
  },
  {
    "Id": "244--7",
    "Organization": "ATMS",
    "RoadwayName": "I-94",
    "DirectionOfTravel": "Unknown",
    "Latitude": 43.035347,
    "Longitude": -87.94479,
    "Name": "I-94 @ 25th St",
    "Url": "https://511wi.gov/map/Cctv/244--7",
    "Status": "Enabled",
    "Description": "N/A"
  },
  {
    "Id": "245--7",
    "Organization": "ATMS",
    "RoadwayName": "I-41/43/894",
    "DirectionOfTravel": "Unknown",
    "Latitude": 42.961809,
    "Longitude": -87.940423,
    "Name": "I-41/43/894 @ 20th St",
    "Url": "https://511wi.gov/map/Cctv/245--7",
    "Status": "Enabled",
    "Description": "N/A"
  },
  {
    "Id": "246--7",
    "Organization": "ATMS",
    "RoadwayName": "US 18",
    "DirectionOfTravel": "Unknown",
    "Latitude": 43.036695,
    "Longitude": -88.067342,
    "Name": "US 18 @ 124th St",
    "Url": "https://511wi.gov/map/Cctv/246--7",
    "Status": "Enabled",
    "Description": "N/A"
  },
  {
    "Id": "247--7",
    "Organization": "ATMS",
    "RoadwayName": "US 18",
    "DirectionOfTravel": "Unknown",
    "Latitude": 43.035689,
    "Longitude": -88.05468,
    "Name": "US 18 @ 114th St",
    "Url": "https://511wi.gov/map/Cctv/247--7",
    "Status": "Enabled",
    "Description": "N/A"
  },
  {
    "Id": "248--7",
    "Organization": "ATMS",
    "RoadwayName": "WIS 100",
    "DirectionOfTravel": "Unknown",
    "Latitude": 43.067107,
    "Longitude": -88.047591,
    "Name": "WIS 100 @ Center St",
    "Url": "https://511wi.gov/map/Cctv/248--7",
    "Status": "Enabled",
    "Description": "N/A"
  },
  {
    "Id": "249--7",
    "Organization": "ATMS",
    "RoadwayName": "Watertown Plank",
    "DirectionOfTravel": "Unknown",
    "Latitude": 43.044931,
    "Longitude": -88.026091,
    "Name": "Watertown Plank @ 92nd St",
    "Url": "https://511wi.gov/map/Cctv/249--7",
    "Status": "Enabled",
    "Description": "N/A"
  },
  {
    "Id": "25--7",
    "Organization": "ATMS",
    "RoadwayName": "I-41",
    "DirectionOfTravel": "Unknown",
    "Latitude": 44.36825,
    "Longitude": -88.176063,
    "Name": "I-41 @ Miner's Way",
    "Url": "https://511wi.gov/map/Cctv/25--7",
    "Status": "Enabled",
    "Description": "N/A"
  },
  {
    "Id": "250--7",
    "Organization": "ATMS",
    "RoadwayName": "WIS 100",
    "DirectionOfTravel": "Unknown",
    "Latitude": 43.023764,
    "Longitude": -88.047161,
    "Name": "WIS 100 @ Theodore Trecker Way",
    "Url": "https://511wi.gov/map/Cctv/250--7",
    "Status": "Enabled",
    "Description": "N/A"
  },
  {
    "Id": "251--7",
    "Organization": "ATMS",
    "RoadwayName": "WIS 100",
    "DirectionOfTravel": "Unknown",
    "Latitude": 42.993913,
    "Longitude": -88.047093,
    "Name": "WIS 100 @ National Ave",
    "Url": "https://511wi.gov/map/Cctv/251--7",
    "Status": "Enabled",
    "Description": "N/A"
  },
  {
    "Id": "252--7",
    "Organization": "ATMS",
    "RoadwayName": "WIS 100",
    "DirectionOfTravel": "Unknown",
    "Latitude": 42.987968,
    "Longitude": -88.04713,
    "Name": "WIS 100 @ Oklahoma Ave",
    "Url": "https://511wi.gov/map/Cctv/252--7",
    "Status": "Enabled",
    "Description": "N/A"
  },
  {
    "Id": "253--7",
    "Organization": "ATMS",
    "RoadwayName": "I-41/894/US 45",
    "DirectionOfTravel": "Unknown",
    "Latitude": 42.9986,
    "Longitude": -88.0378,
    "Name": "I-41/894/US 45 @ National Ave",
    "Url": "https://511wi.gov/map/Cctv/253--7",
    "Status": "Enabled",
    "Description": "N/A"
  },
  {
    "Id": "254--7",
    "Organization": "ATMS",
    "RoadwayName": "Bluemound Rd",
    "DirectionOfTravel": "Unknown",
    "Latitude": 43.035052,
    "Longitude": -88.037828,
    "Name": "Bluemound Rd @ W of 99th St",
    "Url": "https://511wi.gov/map/Cctv/254--7",
    "Status": "Enabled",
    "Description": "N/A"
  },
  {
    "Id": "255--7",
    "Organization": "ATMS",
    "RoadwayName": "Greenfield Ave",
    "DirectionOfTravel": "Unknown",
    "Latitude": 43.01665,
    "Longitude": -88.027296,
    "Name": "Greenfield Ave @ 92nd St",
    "Url": "https://511wi.gov/map/Cctv/255--7",
    "Status": "Enabled",
    "Description": "N/A"
  },
  {
    "Id": "256--7",
    "Organization": "ATMS",
    "RoadwayName": "84th St",
    "DirectionOfTravel": "Unknown",
    "Latitude": 43.023992,
    "Longitude": -88.017116,
    "Name": "84th St @ Schlinger Ave(S of I-94)",
    "Url": "https://511wi.gov/map/Cctv/256--7",
    "Status": "Enabled",
    "Description": "N/A"
  },
  {
    "Id": "257--7",
    "Organization": "ATMS",
    "RoadwayName": "WIS 241",
    "DirectionOfTravel": "Unknown",
    "Latitude": 42.930475,
    "Longitude": -87.949304,
    "Name": "WIS 241/S 27th St @ College Ave",
    "Url": "https://511wi.gov/map/Cctv/257--7",
    "Status": "Enabled",
    "Description": "N/A"
  },
  {
    "Id": "258--7",
    "Organization": "ATMS",
    "RoadwayName": "WIS 241",
    "DirectionOfTravel": "Unknown",
    "Latitude": 42.91653,
    "Longitude": -87.949897,
    "Name": "WIS 241/S 27th St @ Rawson Ave",
    "Url": "https://511wi.gov/map/Cctv/258--7",
    "Status": "Enabled",
    "Description": "N/A"
  },
  {
    "Id": "259--7",
    "Organization": "ATMS",
    "RoadwayName": "WIS 241",
    "DirectionOfTravel": "Unknown",
    "Latitude": 42.901936,
    "Longitude": -87.950377,
    "Name": "WIS 241/S 27th St @ Drexel Ave",
    "Url": "https://511wi.gov/map/Cctv/259--7",
    "Status": "Enabled",
    "Description": "N/A"
  },
  {
    "Id": "26--7",
    "Organization": "ATMS",
    "RoadwayName": "I-41",
    "DirectionOfTravel": "Unknown",
    "Latitude": 44.386001,
    "Longitude": -88.163019,
    "Name": "I-41 @ County S",
    "Url": "https://511wi.gov/map/Cctv/26--7",
    "Status": "Enabled",
    "Description": "N/A"
  },
  {
    "Id": "260--7",
    "Organization": "ATMS",
    "RoadwayName": "I-41/US 45",
    "DirectionOfTravel": "Unknown",
    "Latitude": 43.038488,
    "Longitude": -88.033608,
    "Name": "I-41/US 45 SB @ Wisconsin Ave",
    "Url": "https://511wi.gov/map/Cctv/260--7",
    "Status": "Enabled",
    "Description": "N/A"
  },
  {
    "Id": "261--7",
    "Organization": "ATMS",
    "RoadwayName": "I-94",
    "DirectionOfTravel": "Unknown",
    "Latitude": 43.02853,
    "Longitude": -88.021533,
    "Name": "I-94 @ US 45 84th St Tunnel",
    "Url": "https://511wi.gov/map/Cctv/261--7",
    "Status": "Enabled",
    "Description": "N/A"
  },
  {
    "Id": "262--7",
    "Organization": "ATMS",
    "RoadwayName": "I-94",
    "DirectionOfTravel": "Unknown",
    "Latitude": 43.031016,
    "Longitude": -88.053534,
    "Name": "I-94 @ 113th St ",
    "Url": "https://511wi.gov/map/Cctv/262--7",
    "Status": "Enabled",
    "Description": "N/A"
  },
  {
    "Id": "263--7",
    "Organization": "ATMS",
    "RoadwayName": "I-43",
    "DirectionOfTravel": "Unknown",
    "Latitude": 43.071393,
    "Longitude": -87.921165,
    "Name": "I-43 @ Locust St",
    "Url": "https://511wi.gov/map/Cctv/263--7",
    "Status": "Enabled",
    "Description": "N/A"
  },
  {
    "Id": "264--7",
    "Organization": "ATMS",
    "RoadwayName": "I-94",
    "DirectionOfTravel": "Unknown",
    "Latitude": 43.031969,
    "Longitude": -87.957469,
    "Name": " I-94 @ 35th St",
    "Url": "https://511wi.gov/map/Cctv/264--7",
    "Status": "Enabled",
    "Description": "N/A"
  },
  {
    "Id": "265--7",
    "Organization": "ATMS",
    "RoadwayName": "I-41/43/894",
    "DirectionOfTravel": "Unknown",
    "Latitude": 42.962408,
    "Longitude": -87.978888,
    "Name": "I-41/43/894 @ 51st St",
    "Url": "https://511wi.gov/map/Cctv/265--7",
    "Status": "Enabled",
    "Description": "N/A"
  },
  {
    "Id": "266--7",
    "Organization": "ATMS",
    "RoadwayName": "I-43",
    "DirectionOfTravel": "Unknown",
    "Latitude": 42.962056,
    "Longitude": -88.039177,
    "Name": "I-43 @ Hale Interchange",
    "Url": "https://511wi.gov/map/Cctv/266--7",
    "Status": "Enabled",
    "Description": "N/A"
  },
  {
    "Id": "267--7",
    "Organization": "ATMS",
    "RoadwayName": "WIS 794",
    "DirectionOfTravel": "Unknown",
    "Latitude": 42.973898,
    "Longitude": -87.880459,
    "Name": "WIS 794 @ Howard Ave",
    "Url": "https://511wi.gov/map/Cctv/267--7",
    "Status": "Enabled",
    "Description": "N/A"
  },
  {
    "Id": "268--7",
    "Organization": "ATMS",
    "RoadwayName": "I-94",
    "DirectionOfTravel": "Unknown",
    "Latitude": 44.018777,
    "Longitude": -90.496779,
    "Name": "I-94 @ WIS 21",
    "Url": "https://511wi.gov/map/Cctv/268--7",
    "Status": "Enabled",
    "Description": "N/A"
  },
  {
    "Id": "269--7",
    "Organization": "ATMS",
    "RoadwayName": "I-94",
    "DirectionOfTravel": "Unknown",
    "Latitude": 43.997391,
    "Longitude": -90.471756,
    "Name": "I-94 @ Industrial Dr",
    "Url": "https://511wi.gov/map/Cctv/269--7",
    "Status": "Enabled",
    "Description": "N/A"
  },
  {
    "Id": "27--7",
    "Organization": "ATMS",
    "RoadwayName": "I-41",
    "DirectionOfTravel": "Unknown",
    "Latitude": 44.407384,
    "Longitude": -88.142952,
    "Name": "I-41 @ Larry Ln",
    "Url": "https://511wi.gov/map/Cctv/27--7",
    "Status": "Enabled",
    "Description": "N/A"
  },
  {
    "Id": "270--7",
    "Organization": "ATMS",
    "RoadwayName": "I-94",
    "DirectionOfTravel": "Unknown",
    "Latitude": 43.986606,
    "Longitude": -90.439862,
    "Name": "I-94 WB @ Ramp to I-90",
    "Url": "https://511wi.gov/map/Cctv/270--7",
    "Status": "Enabled",
    "Description": "N/A"
  },
  {
    "Id": "271--7",
    "Organization": "ATMS",
    "RoadwayName": "I-94",
    "DirectionOfTravel": "Unknown",
    "Latitude": 43.985545,
    "Longitude": -90.447989,
    "Name": "I-94 EB @ I-90 WB",
    "Url": "https://511wi.gov/map/Cctv/271--7",
    "Status": "Enabled",
    "Description": "N/A"
  },
  {
    "Id": "272--7",
    "Organization": "ATMS",
    "RoadwayName": "I-90/94",
    "DirectionOfTravel": "Unknown",
    "Latitude": 43.962198,
    "Longitude": -90.378013,
    "Name": "I-90/94 @ County PP",
    "Url": "https://511wi.gov/map/Cctv/272--7",
    "Status": "Enabled",
    "Description": "N/A"
  },
  {
    "Id": "273--7",
    "Organization": "ATMS",
    "RoadwayName": "I-90",
    "DirectionOfTravel": "Unknown",
    "Latitude": 43.972121,
    "Longitude": -90.473226,
    "Name": "I-90 @ US 12/WIS 16",
    "Url": "https://511wi.gov/map/Cctv/273--7",
    "Status": "Enabled",
    "Description": "N/A"
  },
  {
    "Id": "274--7",
    "Organization": "ATMS",
    "RoadwayName": "I-90",
    "DirectionOfTravel": "Unknown",
    "Latitude": 43.95743,
    "Longitude": -90.505059,
    "Name": "I-90 @ WIS 131",
    "Url": "https://511wi.gov/map/Cctv/274--7",
    "Status": "Enabled",
    "Description": "N/A"
  },
  {
    "Id": "275--7",
    "Organization": "ATMS",
    "RoadwayName": "I-94",
    "DirectionOfTravel": "Unknown",
    "Latitude": 44.124379,
    "Longitude": -90.533996,
    "Name": "I-94 @ County EW (Oakwood St)",
    "Url": "https://511wi.gov/map/Cctv/275--7",
    "Status": "Enabled",
    "Description": "N/A"
  },
  {
    "Id": "276--7",
    "Organization": "ATMS",
    "RoadwayName": "I-41",
    "DirectionOfTravel": "Unknown",
    "Latitude": 44.298263,
    "Longitude": -88.415657,
    "Name": "I-41 @ WIS 47",
    "Url": "https://511wi.gov/map/Cctv/276--7",
    "Status": "Enabled",
    "Description": "N/A"
  },
  {
    "Id": "277--7",
    "Organization": "ATMS",
    "RoadwayName": "I-41",
    "DirectionOfTravel": "Unknown",
    "Latitude": 44.262057,
    "Longitude": -88.466711,
    "Name": "I-41 @ WIS 125 (College Ave)",
    "Url": "https://511wi.gov/map/Cctv/277--7",
    "Status": "Enabled",
    "Description": "N/A"
  },
  {
    "Id": "278--7",
    "Organization": "ATMS",
    "RoadwayName": "I-41",
    "DirectionOfTravel": "Unknown",
    "Latitude": 44.288277,
    "Longitude": -88.466669,
    "Name": "I-41 @ County OO (Northland Ave)",
    "Url": "https://511wi.gov/map/Cctv/278--7",
    "Status": "Enabled",
    "Description": "N/A"
  },
  {
    "Id": "279--7",
    "Organization": "ATMS",
    "RoadwayName": "I-41",
    "DirectionOfTravel": "Unknown",
    "Latitude": 44.299419,
    "Longitude": -88.446465,
    "Name": "I-41 @ County A (Lyndale Rd)",
    "Url": "https://511wi.gov/map/Cctv/279--7",
    "Status": "Enabled",
    "Description": "N/A"
  },
  {
    "Id": "28--7",
    "Organization": "ATMS",
    "RoadwayName": "WIS 441",
    "DirectionOfTravel": "Unknown",
    "Latitude": 44.233959,
    "Longitude": -88.404358,
    "Name": "WIS 441 @ Oneida St",
    "Url": "https://511wi.gov/map/Cctv/28--7",
    "Status": "Enabled",
    "Description": "N/A"
  },
  {
    "Id": "280--7",
    "Organization": "ATMS",
    "RoadwayName": "WIS 441",
    "DirectionOfTravel": "Unknown",
    "Latitude": 44.243576,
    "Longitude": -88.35524,
    "Name": "WIS 441 @ County KK (Calumet St)",
    "Url": "https://511wi.gov/map/Cctv/280--7",
    "Status": "Enabled",
    "Description": "N/A"
  },
  {
    "Id": "281--7",
    "Organization": "ATMS",
    "RoadwayName": "WIS 441",
    "DirectionOfTravel": "Unknown",
    "Latitude": 44.25819,
    "Longitude": -88.35627,
    "Name": "WIS 441 @ County CE (College Rd)",
    "Url": "https://511wi.gov/map/Cctv/281--7",
    "Status": "Enabled",
    "Description": "N/A"
  },
  {
    "Id": "282--7",
    "Organization": "ATMS",
    "RoadwayName": "WIS 441",
    "DirectionOfTravel": "Unknown",
    "Latitude": 44.298344,
    "Longitude": -88.356438,
    "Name": "WIS 441 @ I-41",
    "Url": "https://511wi.gov/map/Cctv/282--7",
    "Status": "Enabled",
    "Description": "N/A"
  },
  {
    "Id": "283--7",
    "Organization": "ATMS",
    "RoadwayName": "I-41",
    "DirectionOfTravel": "Unknown",
    "Latitude": 44.305881,
    "Longitude": -88.249384,
    "Name": "I-41 @ County J",
    "Url": "https://511wi.gov/map/Cctv/283--7",
    "Status": "Enabled",
    "Description": "N/A"
  },
  {
    "Id": "284--7",
    "Organization": "ATMS",
    "RoadwayName": "I-41",
    "DirectionOfTravel": "Unknown",
    "Latitude": 44.323083,
    "Longitude": -88.215742,
    "Name": "I-41 @ S of Wrightstown Rd ",
    "Url": "https://511wi.gov/map/Cctv/284--7",
    "Status": "Enabled",
    "Description": "N/A"
  },
  {
    "Id": "285--7",
    "Organization": "ATMS",
    "RoadwayName": "I-43",
    "DirectionOfTravel": "Unknown",
    "Latitude": 43.220933,
    "Longitude": -87.921913,
    "Name": "I-43 @ Mequon Rd",
    "Url": "https://511wi.gov/map/Cctv/285--7",
    "Status": "Enabled",
    "Description": "N/A"
  },
  {
    "Id": "286--7",
    "Organization": "ATMS",
    "RoadwayName": "I-39/US 51",
    "DirectionOfTravel": "Unknown",
    "Latitude": 44.430462,
    "Longitude": -89.518273,
    "Name": "I-39/US 51 @ WIS 54",
    "Url": "https://511wi.gov/map/Cctv/286--7",
    "Status": "Enabled",
    "Description": "N/A"
  },
  {
    "Id": "287--7",
    "Organization": "ATMS",
    "RoadwayName": "I-39/US 51",
    "DirectionOfTravel": "Unknown",
    "Latitude": 44.454234,
    "Longitude": -89.518751,
    "Name": "I-39/US 51 @ County B",
    "Url": "https://511wi.gov/map/Cctv/287--7",
    "Status": "Enabled",
    "Description": "N/A"
  },
  {
    "Id": "288--7",
    "Organization": "ATMS",
    "RoadwayName": "I-39/US 51",
    "DirectionOfTravel": "Unknown",
    "Latitude": 44.497277,
    "Longitude": -89.517959,
    "Name": "I-39/US 51 @ County HH",
    "Url": "https://511wi.gov/map/Cctv/288--7",
    "Status": "Enabled",
    "Description": "N/A"
  },
  {
    "Id": "289--7",
    "Organization": "ATMS",
    "RoadwayName": "I-39/US 51",
    "DirectionOfTravel": "Unknown",
    "Latitude": 44.523499,
    "Longitude": -89.527024,
    "Name": "I-39/US 51 @ US 10/WIS 66",
    "Url": "https://511wi.gov/map/Cctv/289--7",
    "Status": "Enabled",
    "Description": "N/A"
  },
  {
    "Id": "29--7",
    "Organization": "ATMS",
    "RoadwayName": "US 53",
    "DirectionOfTravel": "Unknown",
    "Latitude": 44.861141,
    "Longitude": -91.426392,
    "Name": "US 53 @ Melby St",
    "Url": "https://511wi.gov/map/Cctv/29--7",
    "Status": "Enabled",
    "Description": "N/A"
  },
  {
    "Id": "290--7",
    "Organization": "ATMS",
    "RoadwayName": "I-39/US 51",
    "DirectionOfTravel": "Unknown",
    "Latitude": 44.540555,
    "Longitude": -89.543928,
    "Name": "I-39/US 51 @ WIS 66/Stanley St",
    "Url": "https://511wi.gov/map/Cctv/290--7",
    "Status": "Enabled",
    "Description": "N/A"
  },
  {
    "Id": "291--7",
    "Organization": "ATMS",
    "RoadwayName": "I-39/US 51",
    "DirectionOfTravel": "Unknown",
    "Latitude": 44.54849,
    "Longitude": -89.569271,
    "Name": "I-39/US 51 @ E of BUS 51/Reserve St",
    "Url": "https://511wi.gov/map/Cctv/291--7",
    "Status": "Enabled",
    "Description": "N/A"
  },
  {
    "Id": "292--7",
    "Organization": "ATMS",
    "RoadwayName": "I-41/94 North",
    "DirectionOfTravel": "Unknown",
    "Latitude": 42.829776,
    "Longitude": -87.95231,
    "Name": "I-41/94 @ 7 Mile Rd",
    "Url": "https://511wi.gov/map/Cctv/292--7",
    "Status": "Enabled",
    "Description": "N/A"
  },
  {
    "Id": "293--7",
    "Organization": "ATMS",
    "RoadwayName": "I-41/94 North",
    "DirectionOfTravel": "Unknown",
    "Latitude": 42.807754,
    "Longitude": -87.95378,
    "Name": "I-41/94 @ County G ",
    "Url": "https://511wi.gov/map/Cctv/293--7",
    "Status": "Enabled",
    "Description": "N/A"
  },
  {
    "Id": "294--7",
    "Organization": "ATMS",
    "RoadwayName": "I-41/94 North",
    "DirectionOfTravel": "Unknown",
    "Latitude": 42.778798,
    "Longitude": -87.953463,
    "Name": "I-41/94 @ County K",
    "Url": "https://511wi.gov/map/Cctv/294--7",
    "Status": "Enabled",
    "Description": "N/A"
  },
  {
    "Id": "295--7",
    "Organization": "ATMS",
    "RoadwayName": "I-41/94 North",
    "DirectionOfTravel": "Unknown",
    "Latitude": 42.726062,
    "Longitude": -87.953557,
    "Name": "I-41/94 @ WIS 20",
    "Url": "https://511wi.gov/map/Cctv/295--7",
    "Status": "Enabled",
    "Description": "N/A"
  },
  {
    "Id": "296--7",
    "Organization": "ATMS",
    "RoadwayName": "I-41/94 North",
    "DirectionOfTravel": "Unknown",
    "Latitude": 42.669797,
    "Longitude": -87.953196,
    "Name": "I-41/94 @ County KR",
    "Url": "https://511wi.gov/map/Cctv/296--7",
    "Status": "Enabled",
    "Description": "N/A"
  },
  {
    "Id": "297--7",
    "Organization": "ATMS",
    "RoadwayName": "I-41/94 North",
    "DirectionOfTravel": "Unknown",
    "Latitude": 42.696102,
    "Longitude": -87.953026,
    "Name": "I-41/94 @ WIS 11",
    "Url": "https://511wi.gov/map/Cctv/297--7",
    "Status": "Enabled",
    "Description": "N/A"
  },
  {
    "Id": "299--7",
    "Organization": "ATMS",
    "RoadwayName": "I-39/90 South",
    "DirectionOfTravel": "Unknown",
    "Latitude": 42.717263,
    "Longitude": -88.984639,
    "Name": "I-39/90 @ US 14 ",
    "Url": "https://511wi.gov/map/Cctv/299--7",
    "Status": "Enabled",
    "Description": "N/A"
  },
  {
    "Id": "3--7",
    "Organization": "ATMS",
    "RoadwayName": "I-41",
    "DirectionOfTravel": "Unknown",
    "Latitude": 44.455454,
    "Longitude": -88.088388,
    "Name": "I-41 @ Ashland Ave",
    "Url": "https://511wi.gov/map/Cctv/3--7",
    "Status": "Enabled",
    "Description": "N/A"
  },
  {
    "Id": "30--7",
    "Organization": "ATMS",
    "RoadwayName": "US 53",
    "DirectionOfTravel": "Unknown",
    "Latitude": 44.881924,
    "Longitude": -91.413226,
    "Name": "US 53 @ County OO ",
    "Url": "https://511wi.gov/map/Cctv/30--7",
    "Status": "Enabled",
    "Description": "N/A"
  },
  {
    "Id": "300--7",
    "Organization": "ATMS",
    "RoadwayName": "I-39/90",
    "DirectionOfTravel": "Unknown",
    "Latitude": 42.670987,
    "Longitude": -88.983151,
    "Name": "I-39/90 @ WIS 11 East",
    "Url": "https://511wi.gov/map/Cctv/300--7",
    "Status": "Enabled",
    "Description": "N/A"
  },
  {
    "Id": "301--7",
    "Organization": "ATMS",
    "RoadwayName": "I-39/90",
    "DirectionOfTravel": "Unknown",
    "Latitude": 42.634716,
    "Longitude": -88.982508,
    "Name": "I-39/90 @ Avalon Rd",
    "Url": "https://511wi.gov/map/Cctv/301--7",
    "Status": "Enabled",
    "Description": "N/A"
  },
  {
    "Id": "302--7",
    "Organization": "ATMS",
    "RoadwayName": "I-39/90",
    "DirectionOfTravel": "Unknown",
    "Latitude": 42.560234,
    "Longitude": -88.977435,
    "Name": "I-39/90 @ County S",
    "Url": "https://511wi.gov/map/Cctv/302--7",
    "Status": "Enabled",
    "Description": "N/A"
  },
  {
    "Id": "303--7",
    "Organization": "ATMS",
    "RoadwayName": "I-39/90",
    "DirectionOfTravel": "Unknown",
    "Latitude": 42.527472,
    "Longitude": -88.974748,
    "Name": "I-39/90 @ I-43/WIS 81",
    "Url": "https://511wi.gov/map/Cctv/303--7",
    "Status": "Enabled",
    "Description": "N/A"
  },
  {
    "Id": "304--7",
    "Organization": "ATMS",
    "RoadwayName": "I-39/90",
    "DirectionOfTravel": "Unknown",
    "Latitude": 42.597784,
    "Longitude": -88.981585,
    "Name": "I-39/90 @ S of Woodman Rd",
    "Url": "https://511wi.gov/map/Cctv/304--7",
    "Status": "Enabled",
    "Description": "N/A"
  },
  {
    "Id": "307--7",
    "Organization": "ATMS",
    "RoadwayName": "I-39/90",
    "DirectionOfTravel": "Unknown",
    "Latitude": 42.496398,
    "Longitude": -88.993194,
    "Name": "I-39/90 @ State Line Rd",
    "Url": "https://511wi.gov/map/Cctv/307--7",
    "Status": "Enabled",
    "Description": "N/A"
  },
  {
    "Id": "308--7",
    "Organization": "ATMS",
    "RoadwayName": "I-39/90 South",
    "DirectionOfTravel": "Unknown",
    "Latitude": 42.836164,
    "Longitude": -89.029003,
    "Name": "I-39/90 @ WIS 59",
    "Url": "https://511wi.gov/map/Cctv/308--7",
    "Status": "Enabled",
    "Description": "N/A"
  },
  {
    "Id": "309--7",
    "Organization": "ATMS",
    "RoadwayName": "I-39/90",
    "DirectionOfTravel": "Unknown",
    "Latitude": 42.786852,
    "Longitude": -89.0052,
    "Name": "I-39/90 @ S. of County M",
    "Url": "https://511wi.gov/map/Cctv/309--7",
    "Status": "Enabled",
    "Description": "N/A"
  },
  {
    "Id": "31--7",
    "Organization": "ATMS",
    "RoadwayName": "WIS 29",
    "DirectionOfTravel": "Unknown",
    "Latitude": 44.890188,
    "Longitude": -91.407645,
    "Name": "WIS 29 @ E of US 53/130th St",
    "Url": "https://511wi.gov/map/Cctv/31--7",
    "Status": "Enabled",
    "Description": "N/A"
  },
  {
    "Id": "310--7",
    "Organization": "ATMS",
    "RoadwayName": "I-39/90 South",
    "DirectionOfTravel": "Unknown",
    "Latitude": 42.760135,
    "Longitude": -89.004246,
    "Name": "I-39/90 @ M-H Townline Rd",
    "Url": "https://511wi.gov/map/Cctv/310--7",
    "Status": "Enabled",
    "Description": "N/A"
  },
  {
    "Id": "311--7",
    "Organization": "ATMS",
    "RoadwayName": "I-39/90",
    "DirectionOfTravel": "Unknown",
    "Latitude": 42.696767,
    "Longitude": -88.984389,
    "Name": "I-39/90 @ Milwaukee St.",
    "Url": "https://511wi.gov/map/Cctv/311--7",
    "Status": "Enabled",
    "Description": "N/A"
  },
  {
    "Id": "32--7",
    "Organization": "ATMS",
    "RoadwayName": "US 53",
    "DirectionOfTravel": "Unknown",
    "Latitude": 44.900917,
    "Longitude": -91.426262,
    "Name": "US 53 @ 40th Ave",
    "Url": "https://511wi.gov/map/Cctv/32--7",
    "Status": "Enabled",
    "Description": "N/A"
  },
  {
    "Id": "320--7",
    "Organization": "ATMS",
    "RoadwayName": "I-94",
    "DirectionOfTravel": "Unknown",
    "Latitude": 44.963602,
    "Longitude": -92.68011,
    "Name": "I-94 @ US 12",
    "Url": "https://511wi.gov/map/Cctv/320--7",
    "Status": "Enabled",
    "Description": "N/A"
  },
  {
    "Id": "321--7",
    "Organization": "ATMS",
    "RoadwayName": "I-94",
    "DirectionOfTravel": "Unknown",
    "Latitude": 44.959302,
    "Longitude": -92.560037,
    "Name": "I-94 @ WIS 65",
    "Url": "https://511wi.gov/map/Cctv/321--7",
    "Status": "Enabled",
    "Description": "N/A"
  },
  {
    "Id": "322--7",
    "Organization": "ATMS",
    "RoadwayName": "I-94",
    "DirectionOfTravel": "Unknown",
    "Latitude": 44.93448,
    "Longitude": -92.27796,
    "Name": "I-94 @ County B",
    "Url": "https://511wi.gov/map/Cctv/322--7",
    "Status": "Enabled",
    "Description": "N/A"
  },
  {
    "Id": "323--7",
    "Organization": "ATMS",
    "RoadwayName": "I-94",
    "DirectionOfTravel": "Unknown",
    "Latitude": 44.9332,
    "Longitude": -92.19687,
    "Name": "I-94 @ WIS 128",
    "Url": "https://511wi.gov/map/Cctv/323--7",
    "Status": "Enabled",
    "Description": "N/A"
  },
  {
    "Id": "324--7",
    "Organization": "ATMS",
    "RoadwayName": "I-94",
    "DirectionOfTravel": "Unknown",
    "Latitude": 44.962971,
    "Longitude": -92.75306,
    "Name": "I-94 @ WIS 35 North/ 2nd St",
    "Url": "https://511wi.gov/map/Cctv/324--7",
    "Status": "Enabled",
    "Description": "N/A"
  },
  {
    "Id": "325--7",
    "Organization": "ATMS",
    "RoadwayName": "I-94",
    "DirectionOfTravel": "Unknown",
    "Latitude": 44.963149,
    "Longitude": -92.739362,
    "Name": "I-94 @ 14th St",
    "Url": "https://511wi.gov/map/Cctv/325--7",
    "Status": "Enabled",
    "Description": "N/A"
  },
  {
    "Id": "326--7",
    "Organization": "ATMS",
    "RoadwayName": "I-94",
    "DirectionOfTravel": "Unknown",
    "Latitude": 44.942656,
    "Longitude": -92.435786,
    "Name": "I-94 @ County T ",
    "Url": "https://511wi.gov/map/Cctv/326--7",
    "Status": "Enabled",
    "Description": "N/A"
  },
  {
    "Id": "327--7",
    "Organization": "ATMS",
    "RoadwayName": "I-94",
    "DirectionOfTravel": "Unknown",
    "Latitude": 44.937319,
    "Longitude": -92.37501,
    "Name": "I-94 @ WIS 63 ",
    "Url": "https://511wi.gov/map/Cctv/327--7",
    "Status": "Enabled",
    "Description": "N/A"
  },
  {
    "Id": "328--7",
    "Organization": "ATMS",
    "RoadwayName": "WIS 78",
    "DirectionOfTravel": "Unknown",
    "Latitude": 43.371946,
    "Longitude": -89.627456,
    "Name": "WIS 78 @ Merrimac Ferry North Landing",
    "Url": "https://511wi.gov/map/Cctv/328--7",
    "Status": "Enabled",
    "Description": "N/A"
  },
  {
    "Id": "329--7",
    "Organization": "ATMS",
    "RoadwayName": "I-90/94",
    "DirectionOfTravel": "Unknown",
    "Latitude": 43.570084,
    "Longitude": -89.778944,
    "Name": "I-90/94 @ US 12",
    "Url": "https://511wi.gov/map/Cctv/329--7",
    "Status": "Enabled",
    "Description": "N/A"
  },
  {
    "Id": "33--7",
    "Organization": "ATMS",
    "RoadwayName": "US 53",
    "DirectionOfTravel": "Unknown",
    "Latitude": 44.923641,
    "Longitude": -91.428506,
    "Name": "US 53 @ County X/Bus. 29",
    "Url": "https://511wi.gov/map/Cctv/33--7",
    "Status": "Enabled",
    "Description": "N/A"
  },
  {
    "Id": "330--7",
    "Organization": "ATMS",
    "RoadwayName": "I-90/94",
    "DirectionOfTravel": "Unknown",
    "Latitude": 43.624829,
    "Longitude": -89.803932,
    "Name": "I-90/94 @ WIS 13",
    "Url": "https://511wi.gov/map/Cctv/330--7",
    "Status": "Enabled",
    "Description": "N/A"
  },
  {
    "Id": "331--7",
    "Organization": "ATMS",
    "RoadwayName": "I-90/94",
    "DirectionOfTravel": "Unknown",
    "Latitude": 43.612092,
    "Longitude": -89.807748,
    "Name": "I-90/94 @ Trout Rd",
    "Url": "https://511wi.gov/map/Cctv/331--7",
    "Status": "Enabled",
    "Description": "N/A"
  },
  {
    "Id": "332--7",
    "Organization": "ATMS",
    "RoadwayName": "I-90/94",
    "DirectionOfTravel": "Unknown",
    "Latitude": 43.588604,
    "Longitude": -89.810165,
    "Name": "I-90/94 @ WIS 23",
    "Url": "https://511wi.gov/map/Cctv/332--7",
    "Status": "Enabled",
    "Description": "N/A"
  },
  {
    "Id": "333--7",
    "Organization": "ATMS",
    "RoadwayName": "I-43",
    "DirectionOfTravel": "Unknown",
    "Latitude": 43.7542,
    "Longitude": -87.763727,
    "Name": "I-43 @ WIS 23",
    "Url": "https://511wi.gov/map/Cctv/333--7",
    "Status": "Enabled",
    "Description": "N/A"
  },
  {
    "Id": "334--7",
    "Organization": "ATMS",
    "RoadwayName": "I-43",
    "DirectionOfTravel": "Unknown",
    "Latitude": 43.717353,
    "Longitude": -87.760843,
    "Name": "I-43 @ WIS 28",
    "Url": "https://511wi.gov/map/Cctv/334--7",
    "Status": "Enabled",
    "Description": "N/A"
  },
  {
    "Id": "335--7",
    "Organization": "ATMS",
    "RoadwayName": "I-43",
    "DirectionOfTravel": "Unknown",
    "Latitude": 43.792741,
    "Longitude": -87.763895,
    "Name": "I-43 @ WIS 42",
    "Url": "https://511wi.gov/map/Cctv/335--7",
    "Status": "Enabled",
    "Description": "N/A"
  },
  {
    "Id": "336--7",
    "Organization": "ATMS",
    "RoadwayName": "I-94",
    "DirectionOfTravel": "Unknown",
    "Latitude": 44.579281,
    "Longitude": -91.204674,
    "Name": "I-94 @ US 10",
    "Url": "https://511wi.gov/map/Cctv/336--7",
    "Status": "Enabled",
    "Description": "N/A"
  },
  {
    "Id": "338--7",
    "Organization": "ATMS",
    "RoadwayName": "I-41/US 45",
    "DirectionOfTravel": "Unknown",
    "Latitude": 43.213409,
    "Longitude": -88.147969,
    "Name": "I-41/US 45 @ Lannon Rd",
    "Url": "https://511wi.gov/map/Cctv/338--7",
    "Status": "Enabled",
    "Description": "N/A"
  },
  {
    "Id": "339--7",
    "Organization": "ATMS",
    "RoadwayName": "I-41/US 45",
    "DirectionOfTravel": "Unknown",
    "Latitude": 43.236208,
    "Longitude": -88.174964,
    "Name": "I-41/US 45 @ Freistadt Rd",
    "Url": "https://511wi.gov/map/Cctv/339--7",
    "Status": "Enabled",
    "Description": "N/A"
  },
  {
    "Id": "34--7",
    "Organization": "ATMS",
    "RoadwayName": "WIS 78",
    "DirectionOfTravel": "Unknown",
    "Latitude": 43.365047,
    "Longitude": -89.619744,
    "Name": "WIS 78 @ Merrimac Ferry South Landing",
    "Url": "https://511wi.gov/map/Cctv/34--7",
    "Status": "Enabled",
    "Description": "N/A"
  },
  {
    "Id": "340--7",
    "Organization": "ATMS",
    "RoadwayName": "I-41/US 45",
    "DirectionOfTravel": "Unknown",
    "Latitude": 43.25095,
    "Longitude": -88.182143,
    "Name": "I-41/US 45 @ Holy Hill Rd",
    "Url": "https://511wi.gov/map/Cctv/340--7",
    "Status": "Enabled",
    "Description": "N/A"
  },
  {
    "Id": "341--7",
    "Organization": "ATMS",
    "RoadwayName": "I-41",
    "DirectionOfTravel": "Unknown",
    "Latitude": 43.274722,
    "Longitude": -88.186351,
    "Name": "I-41 @ US 45 Split",
    "Url": "https://511wi.gov/map/Cctv/341--7",
    "Status": "Enabled",
    "Description": "N/A"
  },
  {
    "Id": "342--7",
    "Organization": "ATMS",
    "RoadwayName": "I-41",
    "DirectionOfTravel": "Unknown",
    "Latitude": 43.289663,
    "Longitude": -88.201922,
    "Name": "I-41 @ Mayfield Rd",
    "Url": "https://511wi.gov/map/Cctv/342--7",
    "Status": "Enabled",
    "Description": "N/A"
  },
  {
    "Id": "343--7",
    "Organization": "ATMS",
    "RoadwayName": "I-41",
    "DirectionOfTravel": "Unknown",
    "Latitude": 43.324389,
    "Longitude": -88.249861,
    "Name": "I-41 @ WIS 60",
    "Url": "https://511wi.gov/map/Cctv/343--7",
    "Status": "Enabled",
    "Description": "N/A"
  },
  {
    "Id": "344--7",
    "Organization": "ATMS",
    "RoadwayName": "I-94",
    "DirectionOfTravel": "Unknown",
    "Latitude": 43.042017,
    "Longitude": -88.185351,
    "Name": "I-94 @ Springdale Rd",
    "Url": "https://511wi.gov/map/Cctv/344--7",
    "Status": "Enabled",
    "Description": "N/A"
  },
  {
    "Id": "345--7",
    "Organization": "ATMS",
    "RoadwayName": "I-94",
    "DirectionOfTravel": "Unknown",
    "Latitude": 43.034523,
    "Longitude": -88.172696,
    "Name": "I-94 @ US 18",
    "Url": "https://511wi.gov/map/Cctv/345--7",
    "Status": "Enabled",
    "Description": "N/A"
  },
  {
    "Id": "346--7",
    "Organization": "ATMS",
    "RoadwayName": "I-94",
    "DirectionOfTravel": "Unknown",
    "Latitude": 43.028503,
    "Longitude": -88.127626,
    "Name": "I-94 @ Calhoun Rd",
    "Url": "https://511wi.gov/map/Cctv/346--7",
    "Status": "Enabled",
    "Description": "N/A"
  },
  {
    "Id": "347--7",
    "Organization": "ATMS",
    "RoadwayName": "I-94",
    "DirectionOfTravel": "Unknown",
    "Latitude": 43.024123,
    "Longitude": -88.106598,
    "Name": "I-94 @ Moorland Rd",
    "Url": "https://511wi.gov/map/Cctv/347--7",
    "Status": "Enabled",
    "Description": "N/A"
  },
  {
    "Id": "348--7",
    "Organization": "ATMS",
    "RoadwayName": "I-94",
    "DirectionOfTravel": "Unknown",
    "Latitude": 43.025701,
    "Longitude": -88.086735,
    "Name": "I-94 @ Sunnyslope Rd",
    "Url": "https://511wi.gov/map/Cctv/348--7",
    "Status": "Enabled",
    "Description": "N/A"
  },
  {
    "Id": "349--7",
    "Organization": "ATMS",
    "RoadwayName": "I-41/US 45",
    "DirectionOfTravel": "Unknown",
    "Latitude": 43.169139,
    "Longitude": -88.077115,
    "Name": "I-41/US 45 @ Leon Rd",
    "Url": "https://511wi.gov/map/Cctv/349--7",
    "Status": "Enabled",
    "Description": "N/A"
  },
  {
    "Id": "35--7",
    "Organization": "ATMS",
    "RoadwayName": "I-39/90/94",
    "DirectionOfTravel": "Unknown",
    "Latitude": 43.334944,
    "Longitude": -89.453942,
    "Name": "I-39/90/94 @ WIS 60",
    "Url": "https://511wi.gov/map/Cctv/35--7",
    "Status": "Enabled",
    "Description": "N/A"
  },
  {
    "Id": "350--7",
    "Organization": "ATMS",
    "RoadwayName": "I-41/US 45",
    "DirectionOfTravel": "Unknown",
    "Latitude": 43.182381,
    "Longitude": -88.102104,
    "Name": "I-41/US 45 @ Pilgrim Rd",
    "Url": "https://511wi.gov/map/Cctv/350--7",
    "Status": "Enabled",
    "Description": "N/A"
  },
  {
    "Id": "351--7",
    "Organization": "ATMS",
    "RoadwayName": "I-41/US 45",
    "DirectionOfTravel": "Unknown",
    "Latitude": 43.19233,
    "Longitude": -88.123247,
    "Name": "I-41/US 45 @ County Q",
    "Url": "https://511wi.gov/map/Cctv/351--7",
    "Status": "Enabled",
    "Description": "N/A"
  },
  {
    "Id": "352--7",
    "Organization": "ATMS",
    "RoadwayName": "I-94",
    "DirectionOfTravel": "Unknown",
    "Latitude": 43.048911,
    "Longitude": -88.225183,
    "Name": "I-94 @ WIS 164/County J",
    "Url": "https://511wi.gov/map/Cctv/352--7",
    "Status": "Enabled",
    "Description": "N/A"
  },
  {
    "Id": "353--7",
    "Organization": "ATMS",
    "RoadwayName": "I-43",
    "DirectionOfTravel": "Unknown",
    "Latitude": 42.958401,
    "Longitude": -88.089442,
    "Name": "I-43 @ Sunnyslope Rd",
    "Url": "https://511wi.gov/map/Cctv/353--7",
    "Status": "Enabled",
    "Description": "N/A"
  },
  {
    "Id": "354--7",
    "Organization": "ATMS",
    "RoadwayName": "I-43",
    "DirectionOfTravel": "Unknown",
    "Latitude": 42.952603,
    "Longitude": -88.108258,
    "Name": "I-43 @ Moorland Rd",
    "Url": "https://511wi.gov/map/Cctv/354--7",
    "Status": "Enabled",
    "Description": "N/A"
  },
  {
    "Id": "355--7",
    "Organization": "ATMS",
    "RoadwayName": "I-94",
    "DirectionOfTravel": "Unknown",
    "Latitude": 43.027566,
    "Longitude": -88.077382,
    "Name": "I-94 @ Elm Grove Rd",
    "Url": "https://511wi.gov/map/Cctv/355--7",
    "Status": "Enabled",
    "Description": "N/A"
  },
  {
    "Id": "356--7",
    "Organization": "ATMS",
    "RoadwayName": "US 18",
    "DirectionOfTravel": "Unknown",
    "Latitude": 43.036214,
    "Longitude": -88.106744,
    "Name": "US 18 @ Moorland Rd",
    "Url": "https://511wi.gov/map/Cctv/356--7",
    "Status": "Enabled",
    "Description": "N/A"
  },
  {
    "Id": "357--7",
    "Organization": "ATMS",
    "RoadwayName": "US 18",
    "DirectionOfTravel": "Unknown",
    "Latitude": 43.036683,
    "Longitude": -88.126939,
    "Name": "US 18 @ Calhoun Rd",
    "Url": "https://511wi.gov/map/Cctv/357--7",
    "Status": "Enabled",
    "Description": "N/A"
  },
  {
    "Id": "358--7",
    "Organization": "ATMS",
    "RoadwayName": "US 18",
    "DirectionOfTravel": "Unknown",
    "Latitude": 43.036087,
    "Longitude": -88.168413,
    "Name": "US 18 @ Barker Rd",
    "Url": "https://511wi.gov/map/Cctv/358--7",
    "Status": "Enabled",
    "Description": "N/A"
  },
  {
    "Id": "359--7",
    "Organization": "ATMS",
    "RoadwayName": "I-94",
    "DirectionOfTravel": "Unknown",
    "Latitude": 43.050933,
    "Longitude": -88.303955,
    "Name": "I-94 @ County SS",
    "Url": "https://511wi.gov/map/Cctv/359--7",
    "Status": "Enabled",
    "Description": "N/A"
  },
  {
    "Id": "36--7",
    "Organization": "ATMS",
    "RoadwayName": "I-39/90/94",
    "DirectionOfTravel": "Unknown",
    "Latitude": 43.391665,
    "Longitude": -89.467174,
    "Name": "I-39/90/94 @ County CS",
    "Url": "https://511wi.gov/map/Cctv/36--7",
    "Status": "Enabled",
    "Description": "N/A"
  },
  {
    "Id": "360--7",
    "Organization": "ATMS",
    "RoadwayName": "I-94",
    "DirectionOfTravel": "Unknown",
    "Latitude": 43.051274,
    "Longitude": -88.373325,
    "Name": "I-94 @ WIS 83",
    "Url": "https://511wi.gov/map/Cctv/360--7",
    "Status": "Enabled",
    "Description": "N/A"
  },
  {
    "Id": "361--7",
    "Organization": "ATMS",
    "RoadwayName": "I-94",
    "DirectionOfTravel": "Unknown",
    "Latitude": 43.069054,
    "Longitude": -88.471076,
    "Name": "I-94 @ WIS 67",
    "Url": "https://511wi.gov/map/Cctv/361--7",
    "Status": "Enabled",
    "Description": "N/A"
  },
  {
    "Id": "362--7",
    "Organization": "ATMS",
    "RoadwayName": "I-94",
    "DirectionOfTravel": "Unknown",
    "Latitude": 43.06095,
    "Longitude": -88.442064,
    "Name": "I-94 @ County P",
    "Url": "https://511wi.gov/map/Cctv/362--7",
    "Status": "Enabled",
    "Description": "N/A"
  },
  {
    "Id": "363--7",
    "Organization": "ATMS",
    "RoadwayName": "I-94",
    "DirectionOfTravel": "Unknown",
    "Latitude": 43.048284,
    "Longitude": -88.207387,
    "Name": "I-94 @ County F",
    "Url": "https://511wi.gov/map/Cctv/363--7",
    "Status": "Enabled",
    "Description": "N/A"
  },
  {
    "Id": "364--7",
    "Organization": "ATMS",
    "RoadwayName": "I-43",
    "DirectionOfTravel": "Unknown",
    "Latitude": 42.933129,
    "Longitude": -88.15859,
    "Name": "I-43 @ Racine Ave",
    "Url": "https://511wi.gov/map/Cctv/364--7",
    "Status": "Enabled",
    "Description": "N/A"
  },
  {
    "Id": "365--7",
    "Organization": "ATMS",
    "RoadwayName": "I-94",
    "DirectionOfTravel": "Unknown",
    "Latitude": 43.046415,
    "Longitude": -88.255708,
    "Name": "I-94 @ County T",
    "Url": "https://511wi.gov/map/Cctv/365--7",
    "Status": "Enabled",
    "Description": "N/A"
  },
  {
    "Id": "366--7",
    "Organization": "ATMS",
    "RoadwayName": "I-94",
    "DirectionOfTravel": "Unknown",
    "Latitude": 43.029544,
    "Longitude": -88.151461,
    "Name": "I-94 @ Brookfield Rd",
    "Url": "https://511wi.gov/map/Cctv/366--7",
    "Status": "Enabled",
    "Description": "N/A"
  },
  {
    "Id": "367--7",
    "Organization": "ATMS",
    "RoadwayName": "I-43",
    "DirectionOfTravel": "Unknown",
    "Latitude": 42.925432,
    "Longitude": -88.188782,
    "Name": "I-43 @ Crowbar Rd",
    "Url": "https://511wi.gov/map/Cctv/367--7",
    "Status": "Enabled",
    "Description": "N/A"
  },
  {
    "Id": "368--7",
    "Organization": "ATMS",
    "RoadwayName": "I-43",
    "DirectionOfTravel": "Unknown",
    "Latitude": 42.911027,
    "Longitude": -88.216711,
    "Name": "I-43 @ WIS 164",
    "Url": "https://511wi.gov/map/Cctv/368--7",
    "Status": "Enabled",
    "Description": "N/A"
  },
  {
    "Id": "369--7",
    "Organization": "ATMS",
    "RoadwayName": "Greenfield Ave",
    "DirectionOfTravel": "Unknown",
    "Latitude": 43.017027,
    "Longitude": -88.106736,
    "Name": "Greenfield Ave. @ Moorland Rd",
    "Url": "https://511wi.gov/map/Cctv/369--7",
    "Status": "Enabled",
    "Description": "N/A"
  },
  {
    "Id": "37--7",
    "Organization": "ATMS",
    "RoadwayName": "I-90/94",
    "DirectionOfTravel": "Unknown",
    "Latitude": 43.488863,
    "Longitude": -89.493236,
    "Name": "I-90/94 @ I-39 ",
    "Url": "https://511wi.gov/map/Cctv/37--7",
    "Status": "Enabled",
    "Description": "N/A"
  },
  {
    "Id": "370--7",
    "Organization": "ATMS",
    "RoadwayName": "Greenfield Ave",
    "DirectionOfTravel": "Unknown",
    "Latitude": 43.016776,
    "Longitude": -88.087443,
    "Name": "Greenfield Ave. @ Sunnyslope Rd",
    "Url": "https://511wi.gov/map/Cctv/370--7",
    "Status": "Enabled",
    "Description": "N/A"
  },
  {
    "Id": "371--7",
    "Organization": "ATMS",
    "RoadwayName": "Greenfield Ave",
    "DirectionOfTravel": "Unknown",
    "Latitude": 43.016613,
    "Longitude": -88.077379,
    "Name": "Greenfield Ave. @ Elm Grove Rd.",
    "Url": "https://511wi.gov/map/Cctv/371--7",
    "Status": "Enabled",
    "Description": "N/A"
  },
  {
    "Id": "372--7",
    "Organization": "ATMS",
    "RoadwayName": "US 18",
    "DirectionOfTravel": "Unknown",
    "Latitude": 43.036245,
    "Longitude": -88.086644,
    "Name": "US 18 @ Sunnyslope Rd",
    "Url": "https://511wi.gov/map/Cctv/372--7",
    "Status": "Enabled",
    "Description": "N/A"
  },
  {
    "Id": "373--7",
    "Organization": "ATMS",
    "RoadwayName": "US 18",
    "DirectionOfTravel": "Unknown",
    "Latitude": 43.035923,
    "Longitude": -88.076866999999993,
    "Name": "US 18 @ Elm Grove Rd",
    "Url": "https://511wi.gov/map/Cctv/373--7",
    "Status": "Enabled",
    "Description": "N/A"
  },
  {
    "Id": "374--7",
    "Organization": "ATMS",
    "RoadwayName": "Greenfield Ave",
    "DirectionOfTravel": "Unknown",
    "Latitude": 43.016887,
    "Longitude": -88.165965,
    "Name": "Greenfield Ave. @ Barker Rd",
    "Url": "https://511wi.gov/map/Cctv/374--7",
    "Status": "Enabled",
    "Description": "N/A"
  },
  {
    "Id": "375--7",
    "Organization": "ATMS",
    "RoadwayName": "Greenfield Ave",
    "DirectionOfTravel": "Unknown",
    "Latitude": 43.01728,
    "Longitude": -88.146918,
    "Name": "Greenfield Ave. @ Brookfield Rd",
    "Url": "https://511wi.gov/map/Cctv/375--7",
    "Status": "Enabled",
    "Description": "N/A"
  },
  {
    "Id": "376--7",
    "Organization": "ATMS",
    "RoadwayName": "Greenfield Ave",
    "DirectionOfTravel": "Unknown",
    "Latitude": 43.016777,
    "Longitude": -88.126711,
    "Name": "Greenfield Ave. @ Calhoun Rd",
    "Url": "https://511wi.gov/map/Cctv/376--7",
    "Status": "Enabled",
    "Description": "N/A"
  },
  {
    "Id": "377--7",
    "Organization": "ATMS",
    "RoadwayName": "US 18",
    "DirectionOfTravel": "Unknown",
    "Latitude": 43.036359,
    "Longitude": -88.156979,
    "Name": "US 18 @ Janacek Rd",
    "Url": "https://511wi.gov/map/Cctv/377--7",
    "Status": "Enabled",
    "Description": "N/A"
  },
  {
    "Id": "378--7",
    "Organization": "ATMS",
    "RoadwayName": "US 18",
    "DirectionOfTravel": "Unknown",
    "Latitude": 43.035994,
    "Longitude": -88.146371,
    "Name": "US 18 @ Brookfield Rd",
    "Url": "https://511wi.gov/map/Cctv/378--7",
    "Status": "Enabled",
    "Description": "N/A"
  },
  {
    "Id": "379--7",
    "Organization": "ATMS",
    "RoadwayName": "US 18",
    "DirectionOfTravel": "Unknown",
    "Latitude": 43.037016,
    "Longitude": -88.13715,
    "Name": "US 18 @ Woelfel Rd",
    "Url": "https://511wi.gov/map/Cctv/379--7",
    "Status": "Enabled",
    "Description": "N/A"
  },
  {
    "Id": "38--7",
    "Organization": "ATMS",
    "RoadwayName": "I-90/94",
    "DirectionOfTravel": "Unknown",
    "Latitude": 43.513757,
    "Longitude": -89.523159,
    "Name": "I-90/94 @ WIS 33",
    "Url": "https://511wi.gov/map/Cctv/38--7",
    "Status": "Enabled",
    "Description": "N/A"
  },
  {
    "Id": "380--7",
    "Organization": "ATMS",
    "RoadwayName": "US 18",
    "DirectionOfTravel": "Unknown",
    "Latitude": 43.03654,
    "Longitude": -88.114727,
    "Name": "US 18 @ Executive Dr",
    "Url": "https://511wi.gov/map/Cctv/380--7",
    "Status": "Enabled",
    "Description": "N/A"
  },
  {
    "Id": "381--7",
    "Organization": "ATMS",
    "RoadwayName": "I-43",
    "DirectionOfTravel": "Unknown",
    "Latitude": 42.940239,
    "Longitude": -88.129141,
    "Name": "I-43 @ Calhoun Rd",
    "Url": "https://511wi.gov/map/Cctv/381--7",
    "Status": "Enabled",
    "Description": "N/A"
  },
  {
    "Id": "382--7",
    "Organization": "ATMS",
    "RoadwayName": "I-41",
    "DirectionOfTravel": "Unknown",
    "Latitude": 43.950551,
    "Longitude": -88.583416,
    "Name": "I-41 @ WIS 26",
    "Url": "https://511wi.gov/map/Cctv/382--7",
    "Status": "Enabled",
    "Description": "N/A"
  },